{
"type": "FeatureCollection",
"features": [
{ "type": "Feature", "properties": { "name": "Asian Cafe", "rating": 3.9, "reviews": 168, "latitude": 33.9579874, "longitude": -84.3027243, "address": "2462 Jett Ferry Rd", "city": "Dunwoody", "state": "GA", "postcode": "30338" }, "geometry": { "type": "Point", "coordinates": [ -84.3027243, 33.9579874 ] } },
{ "type": "Feature", "properties": { "name": "Cafe Bora", "rating": 4.4, "reviews": 100, "latitude": 34.091231, "longitude": -84.275178, "address": "5250 Windward Pkwy", "city": "Alpharetta", "state": "GA", "postcode": "30004" }, "geometry": { "type": "Point", "coordinates": [ -84.275178, 34.091231 ] } },
{ "type": "Feature", "properties": { "name": "Momo Cafe", "rating": 4.3, "reviews": 215, "latitude": 33.779757214965265, "longitude": -84.390326104329006, "address": "95 8th St NW", "city": "Atlanta", "state": "GA", "postcode": "30309" }, "geometry": { "type": "Point", "coordinates": [ -84.390326104329006, 33.779757214965265 ] } },
{ "type": "Feature", "properties": { "name": "Sweet Hut Bakery & Cafe", "rating": 4.1, "reviews": 867, "latitude": 33.780215, "longitude": -84.3839385, "address": "935 Peachtree St NE", "city": "Atlanta", "state": "GA", "postcode": "30309" }, "geometry": { "type": "Point", "coordinates": [ -84.3839385, 33.780215 ] } },
{ "type": "Feature", "properties": { "name": "Matcha Cafe Maiko", "rating": 4.4, "reviews": 333, "latitude": 33.89737392445987, "longitude": -84.281318510305582, "address": "5306 Buford Hwy NE", "city": "Atlanta", "state": "GA", "postcode": "30340" }, "geometry": { "type": "Point", "coordinates": [ -84.281318510305582, 33.89737392445987 ] } },
{ "type": "Feature", "properties": { "name": "Momonoki", "rating": 3.9, "reviews": 559, "latitude": 33.779789948626558, "longitude": -84.390195891046375, "address": "95 8th St NW", "city": "Atlanta", "state": "GA", "postcode": "30309" }, "geometry": { "type": "Point", "coordinates": [ -84.390195891046375, 33.779789948626558 ] } },
{ "type": "Feature", "properties": { "name": "Family Baking", "rating": 4.7, "reviews": 88, "latitude": 33.890659, "longitude": -84.29997, "address": "5389 New Peachtree Rd", "city": "Chamblee", "state": "GA", "postcode": "30341" }, "geometry": { "type": "Point", "coordinates": [ -84.29997, 33.890659 ] } },
{ "type": "Feature", "properties": { "name": "Tea Leaf and Creamery", "rating": 4.3, "reviews": 193, "latitude": 33.790982, "longitude": -84.3075017, "address": "2052 North Decatur Rd", "city": "Decatur", "state": "GA", "postcode": "30033" }, "geometry": { "type": "Point", "coordinates": [ -84.3075017, 33.790982 ] } },
{ "type": "Feature", "properties": { "name": "Paris Baguette", "rating": 3.9, "reviews": 471, "latitude": 33.896155, "longitude": -84.282818, "address": "5252 Buford Hwy NE", "city": "Doraville", "state": "GA", "postcode": "30340" }, "geometry": { "type": "Point", "coordinates": [ -84.282818, 33.896155 ] } },
{ "type": "Feature", "properties": { "name": "Cuckoo's Cafe", "rating": 4.2, "reviews": 102, "latitude": 33.897578, "longitude": -84.281945, "address": "5302 Buford Hwy NE", "city": "Doraville", "state": "GA", "postcode": "30340" }, "geometry": { "type": "Point", "coordinates": [ -84.281945, 33.897578 ] } },
{ "type": "Feature", "properties": { "name": "Cafe Mixx", "rating": 4.3, "reviews": 157, "latitude": 34.028099, "longitude": -84.045591, "address": "2925 Lawrenceville Suwanee Rd", "city": "Suwanee", "state": "GA", "postcode": "30024" }, "geometry": { "type": "Point", "coordinates": [ -84.045591, 34.028099 ] } },
{ "type": "Feature", "properties": { "name": "Hong Kong Bakery", "rating": 4.3, "reviews": 91, "latitude": 33.893706801415298, "longitude": -84.285344959663405, "address": "5150 Buford Hwy NE", "city": "Atlanta", "state": "GA", "postcode": "30340" }, "geometry": { "type": "Point", "coordinates": [ -84.285344959663405, 33.893706801415298 ] } },
{ "type": "Feature", "properties": { "name": "Snowflake Tea House", "rating": 3.9, "reviews": 400, "latitude": 33.96116, "longitude": -84.13451, "address": "2180 Pleasant Hill Rd", "city": "Duluth", "state": "GA", "postcode": "30096" }, "geometry": { "type": "Point", "coordinates": [ -84.13451, 33.96116 ] } },
{ "type": "Feature", "properties": { "name": "Tree Story Bakery & Cafe", "rating": 4.1, "reviews": 221, "latitude": 33.9692993164062, "longitude": -84.142829895019503, "address": "2550 Pleasant Hill Rd", "city": "Duluth", "state": "GA", "postcode": "30096" }, "geometry": { "type": "Point", "coordinates": [ -84.142829895019503, 33.9692993164062 ] } },
{ "type": "Feature", "properties": { "name": "Arte", "rating": 4.4, "reviews": 150, "latitude": 34.005287, "longitude": -84.083602, "address": "1291 Old Peachtree Rd NW", "city": "Suwanee", "state": "GA", "postcode": "30024" }, "geometry": { "type": "Point", "coordinates": [ -84.083602, 34.005287 ] } },
{ "type": "Feature", "properties": { "name": "Cafe 104", "rating": 4.1, "reviews": 89, "latitude": 33.963594, "longitude": -84.141458, "address": "3705 Old Norcross Rd", "city": "Duluth", "state": "GA", "postcode": "30096" }, "geometry": { "type": "Point", "coordinates": [ -84.141458, 33.963594 ] } },
{ "type": "Feature", "properties": { "name": "Lavena Cafe", "rating": 4.5, "reviews": 60, "latitude": 34.064135507955555, "longitude": -84.21259371653808, "address": "11585 Jones Bridge Rd", "city": "Alpharetta", "state": "GA", "postcode": "30022" }, "geometry": { "type": "Point", "coordinates": [ -84.21259371653808, 34.064135507955555 ] } },
{ "type": "Feature", "properties": { "name": "Bao Bun Hibachi", "rating": 4.5, "reviews": 157, "latitude": 33.801245315923779, "longitude": -84.413440914600088, "address": "1715 Howell Mill Rd", "city": "Atlanta", "state": "GA", "postcode": "30318" }, "geometry": { "type": "Point", "coordinates": [ -84.413440914600088, 33.801245315923779 ] } },
{ "type": "Feature", "properties": { "name": "Bang Bang Katsu House", "rating": 4.2, "reviews": 65, "latitude": 34.091280661050057, "longitude": -84.275354258716106, "address": "5250 Windward Pkwy", "city": "Milton", "state": "GA", "postcode": "30004" }, "geometry": { "type": "Point", "coordinates": [ -84.275354258716106, 34.091280661050057 ] } },
{ "type": "Feature", "properties": { "name": "Cafe Some Karaoke & Pocha", "rating": 4.7, "reviews": 32, "latitude": 33.96001, "longitude": -84.13107, "address": "3525 Mall Blvd NW", "city": "Duluth", "state": "GA", "postcode": "30096" }, "geometry": { "type": "Point", "coordinates": [ -84.13107, 33.96001 ] } },
{ "type": "Feature", "properties": { "name": "Alon's Bakery & Market", "rating": 3.8, "reviews": 464, "latitude": 33.79258, "longitude": -84.35284, "address": "1394 N Highland Ave NE", "city": "Atlanta", "state": "GA", "postcode": "30306" }, "geometry": { "type": "Point", "coordinates": [ -84.35284, 33.79258 ] } },
{ "type": "Feature", "properties": { "name": "Teamo Tea Cafe", "rating": 4.1, "reviews": 259, "latitude": 33.916947018655371, "longitude": -84.379799318605308, "address": "5920 Roswell Rd", "city": "Sandy Springs", "state": "GA", "postcode": "30328" }, "geometry": { "type": "Point", "coordinates": [ -84.379799318605308, 33.916947018655371 ] } },
{ "type": "Feature", "properties": { "name": "White Windmill Bakery", "rating": 4.0, "reviews": 106, "latitude": 33.9580688476562, "longitude": -84.140518188476605, "address": "3230 Steve Reynolds Blvd", "city": "Duluth", "state": "GA", "postcode": "30096" }, "geometry": { "type": "Point", "coordinates": [ -84.140518188476605, 33.9580688476562 ] } },
{ "type": "Feature", "properties": { "name": "Hansel & Gretel Bakery Cafe", "rating": 4.2, "reviews": 117, "latitude": 33.95437, "longitude": -84.134127, "address": "2131 Pleasant Hill Rd", "city": "Duluth", "state": "GA", "postcode": "30096" }, "geometry": { "type": "Point", "coordinates": [ -84.134127, 33.95437 ] } },
{ "type": "Feature", "properties": { "name": "Little Bangkok", "rating": 4.1, "reviews": 880, "latitude": 33.815886258044863, "longitude": -84.352365847135587, "address": "2225 Cheshire Bridge Rd Ne", "city": "Atlanta", "state": "GA", "postcode": "30324" }, "geometry": { "type": "Point", "coordinates": [ -84.352365847135587, 33.815886258044863 ] } },
{ "type": "Feature", "properties": { "name": "Girl Diver", "rating": 3.8, "reviews": 271, "latitude": 33.745940699738277, "longitude": -84.356167943610657, "address": "955 Memorial Dr SE", "city": "Atlanta", "state": "GA", "postcode": "30316" }, "geometry": { "type": "Point", "coordinates": [ -84.356167943610657, 33.745940699738277 ] } },
{ "type": "Feature", "properties": { "name": "White Windmill Bakery & Cafe", "rating": 4.0, "reviews": 574, "latitude": 33.910922934594119, "longitude": -84.264475028835534, "address": "5881 Buford Hwy Ne", "city": "Doraville", "state": "GA", "postcode": "30340" }, "geometry": { "type": "Point", "coordinates": [ -84.264475028835534, 33.910922934594119 ] } },
{ "type": "Feature", "properties": { "name": "La Mei Zi", "rating": 4.4, "reviews": 690, "latitude": 33.89276799599579, "longitude": -84.286170325689184, "address": "5150 Buford Hwy", "city": "Doraville", "state": "GA", "postcode": "30340" }, "geometry": { "type": "Point", "coordinates": [ -84.286170325689184, 33.89276799599579 ] } },
{ "type": "Feature", "properties": { "name": "Cafe Momo", "rating": 3.8, "reviews": 96, "latitude": 33.760163779465096, "longitude": -84.388122147239955, "address": "231 Peachtree St NE", "city": "Atlanta", "state": "GA", "postcode": "30303" }, "geometry": { "type": "Point", "coordinates": [ -84.388122147239955, 33.760163779465096 ] } },
{ "type": "Feature", "properties": { "name": "Cafe 100", "rating": 4.4, "reviews": 31, "latitude": 33.847435, "longitude": -84.370907, "address": "3340 Peachtree Rd NE", "city": "Atlanta", "state": "GA", "postcode": "30326" }, "geometry": { "type": "Point", "coordinates": [ -84.370907, 33.847435 ] } },
{ "type": "Feature", "properties": { "name": "Herban Fix - Vegan Kitchen", "rating": 4.3, "reviews": 942, "latitude": 33.770081133576902, "longitude": -84.384954454369094, "address": "565-A Peachtree St NE", "city": "Atlanta", "state": "GA", "postcode": "30308" }, "geometry": { "type": "Point", "coordinates": [ -84.384954454369094, 33.770081133576902 ] } },
{ "type": "Feature", "properties": { "name": "Sweet Hut Bakery & Cafe", "rating": 4.1, "reviews": 812, "latitude": 33.9617129, "longitude": -84.1343575, "address": "2180 Pleasant Hill Rd", "city": "Duluth", "state": "GA", "postcode": "30096" }, "geometry": { "type": "Point", "coordinates": [ -84.1343575, 33.9617129 ] } },
{ "type": "Feature", "properties": { "name": "Wokdragon", "rating": 3.2, "reviews": 63, "latitude": 33.845504404045897, "longitude": -84.361037608181704, "address": "3393 Peachtree Rd NE", "city": "Atlanta", "state": "GA", "postcode": "30326" }, "geometry": { "type": "Point", "coordinates": [ -84.361037608181704, 33.845504404045897 ] } },
{ "type": "Feature", "properties": { "name": "Café Vendôme", "rating": 3.8, "reviews": 277, "latitude": 33.889693, "longitude": -84.38058, "address": "4969 Roswell Rd", "city": "Atlanta", "state": "GA", "postcode": "30342" }, "geometry": { "type": "Point", "coordinates": [ -84.38058, 33.889693 ] } },
{ "type": "Feature", "properties": { "name": "2plus2", "rating": 4.1, "reviews": 117, "latitude": 34.055597160827503, "longitude": -84.0617185262535, "address": "3890 Lawrenceville-Suwanee Rd", "city": "Suwanee", "state": "GA", "postcode": "30024" }, "geometry": { "type": "Point", "coordinates": [ -84.0617185262535, 34.055597160827503 ] } },
{ "type": "Feature", "properties": { "name": "Bangkok Station", "rating": 4.1, "reviews": 504, "latitude": 33.8373431, "longitude": -84.3701132, "address": "550 Pharr Rd", "city": "Atlanta", "state": "GA", "postcode": "30305" }, "geometry": { "type": "Point", "coordinates": [ -84.3701132, 33.8373431 ] } },
{ "type": "Feature", "properties": { "name": "Lee's Bakery", "rating": 4.2, "reviews": 1101, "latitude": 33.860068400801197, "longitude": -84.308893003704796, "address": "4005 Buford Hwy NE", "city": "Atlanta", "state": "GA", "postcode": "30345" }, "geometry": { "type": "Point", "coordinates": [ -84.308893003704796, 33.860068400801197 ] } },
{ "type": "Feature", "properties": { "name": "Cafe Comma", "rating": 4.2, "reviews": 277, "latitude": 33.865186743986222, "longitude": -84.471612711601168, "address": "3621 Vinings Slope SE", "city": "Atlanta", "state": "GA", "postcode": "30339" }, "geometry": { "type": "Point", "coordinates": [ -84.471612711601168, 33.865186743986222 ] } },
{ "type": "Feature", "properties": { "name": "Tous Les Jours", "rating": 4.7, "reviews": 7, "latitude": 33.582504272460902, "longitude": -84.412712097167997, "address": "6335 Hwy 85", "city": "Riverdale", "state": "GA", "postcode": "30274" }, "geometry": { "type": "Point", "coordinates": [ -84.412712097167997, 33.582504272460902 ] } },
{ "type": "Feature", "properties": { "name": "Poor Calvin's", "rating": 4.4, "reviews": 4726, "latitude": 33.7684, "longitude": -84.38226, "address": "510 Piedmont Ave NE", "city": "Atlanta", "state": "GA", "postcode": "30308" }, "geometry": { "type": "Point", "coordinates": [ -84.38226, 33.7684 ] } },
{ "type": "Feature", "properties": { "name": "Cuckoos Cafe", "rating": 4.4, "reviews": 129, "latitude": 33.95829, "longitude": -84.141004, "address": "3182 Steve Reynolds Blvd", "city": "Duluth", "state": "GA", "postcode": "30096" }, "geometry": { "type": "Point", "coordinates": [ -84.141004, 33.95829 ] } },
{ "type": "Feature", "properties": { "name": "Poke Dessert Bar", "rating": 3.6, "reviews": 130, "latitude": 33.884026960441403, "longitude": -84.287786632776303, "address": "4897 Buford Hwy NE", "city": "Chamblee", "state": "GA", "postcode": "30341" }, "geometry": { "type": "Point", "coordinates": [ -84.287786632776303, 33.884026960441403 ] } },
{ "type": "Feature", "properties": { "name": "Honey Bubble", "rating": 3.7, "reviews": 615, "latitude": 33.7739334, "longitude": -84.3611679, "address": "798 Ponce De Leon Ave NE", "city": "Atlanta", "state": "GA", "postcode": "30306" }, "geometry": { "type": "Point", "coordinates": [ -84.3611679, 33.7739334 ] } },
{ "type": "Feature", "properties": { "name": "Art's Bakery & Cafe", "rating": 4.5, "reviews": 100, "latitude": 33.942448, "longitude": -84.159369, "address": "4500 Satellite Blvd", "city": "Duluth", "state": "GA", "postcode": "30096" }, "geometry": { "type": "Point", "coordinates": [ -84.159369, 33.942448 ] } },
{ "type": "Feature", "properties": { "name": "Teamia", "rating": 3.6, "reviews": 5, "latitude": 33.909650845167924, "longitude": -84.204134233295918, "address": "5495 Jimmy Carter Blvd", "city": "Norcross", "state": "GA", "postcode": "30093" }, "geometry": { "type": "Point", "coordinates": [ -84.204134233295918, 33.909650845167924 ] } },
{ "type": "Feature", "properties": { "name": "Boba Mocha", "rating": 4.5, "reviews": 609, "latitude": 33.971170877789902, "longitude": -84.147890217217807, "address": "2628 Pleasant Hill Rd", "city": "Duluth", "state": "GA", "postcode": "30096" }, "geometry": { "type": "Point", "coordinates": [ -84.147890217217807, 33.971170877789902 ] } },
{ "type": "Feature", "properties": { "name": "Confections Bakery & Cafe", "rating": 4.0, "reviews": 34, "latitude": 33.963279, "longitude": -84.125493, "address": "3330 Satellite Blvd", "city": "Duluth", "state": "GA", "postcode": "30096" }, "geometry": { "type": "Point", "coordinates": [ -84.125493, 33.963279 ] } },
{ "type": "Feature", "properties": { "name": "Java Saga", "rating": 4.8, "reviews": 180, "latitude": 33.89306, "longitude": -84.28352, "address": "5145 Buford Hwy NE", "city": "Doraville", "state": "GA", "postcode": "30340" }, "geometry": { "type": "Point", "coordinates": [ -84.28352, 33.89306 ] } },
{ "type": "Feature", "properties": { "name": "Colette French Pastries", "rating": 4.3, "reviews": 474, "latitude": 34.070366036058012, "longitude": -84.293096166899105, "address": "2225 Old Milton Pkwy", "city": "Alpharetta", "state": "GA", "postcode": "30009" }, "geometry": { "type": "Point", "coordinates": [ -84.293096166899105, 34.070366036058012 ] } },
{ "type": "Feature", "properties": { "name": "Tin Drum Asian Kitchen & Boba Tea Bar - Georgia Tech", "rating": 3.1, "reviews": 304, "latitude": 33.7766376, "longitude": -84.3900977, "address": "88 5th St NW", "city": "Atlanta", "state": "GA", "postcode": "30308" }, "geometry": { "type": "Point", "coordinates": [ -84.3900977, 33.7766376 ] } },
{ "type": "Feature", "properties": { "name": "Paopao Ramen Factory & Bar", "rating": 3.9, "reviews": 391, "latitude": 34.0690314, "longitude": -83.986663600611692, "address": "3290 Buford Dr NE", "city": "Buford", "state": "GA", "postcode": "30519" }, "geometry": { "type": "Point", "coordinates": [ -83.986663600611692, 34.0690314 ] } },
{ "type": "Feature", "properties": { "name": "Ren By Budi's", "rating": 4.8, "reviews": 15, "latitude": 33.77539, "longitude": -84.29966, "address": "250 West Ponce De Leon Ave", "city": "Decatur", "state": "GA", "postcode": "30030" }, "geometry": { "type": "Point", "coordinates": [ -84.29966, 33.77539 ] } },
{ "type": "Feature", "properties": { "name": "E. 48th Street Market", "rating": 4.5, "reviews": 324, "latitude": 33.958367, "longitude": -84.304212, "address": "2462 Jett Ferry", "city": "Dunwoody", "state": "GA", "postcode": "30338" }, "geometry": { "type": "Point", "coordinates": [ -84.304212, 33.958367 ] } },
{ "type": "Feature", "properties": { "name": "Saigon Bites", "rating": 4.3, "reviews": 13, "latitude": 33.760224973266737, "longitude": -84.387247315299632, "address": "231 Peachtree St NE", "city": "Atlanta", "state": "GA", "postcode": "30308" }, "geometry": { "type": "Point", "coordinates": [ -84.387247315299632, 33.760224973266737 ] } },
{ "type": "Feature", "properties": { "name": "Food Terminal - Sandy Springs", "rating": 4.3, "reviews": 175, "latitude": 33.934774999992648, "longitude": -84.364985874783656, "address": "6550 Aria Blvd", "city": "Sandy Springs", "state": "GA", "postcode": "30328" }, "geometry": { "type": "Point", "coordinates": [ -84.364985874783656, 33.934774999992648 ] } },
{ "type": "Feature", "properties": { "name": "Bread Connection", "rating": 4.4, "reviews": 29, "latitude": 34.019860185640482, "longitude": -84.158270621893408, "address": "3170 Peachtree Industrial Blvd", "city": "Duluth", "state": "GA", "postcode": "30097" }, "geometry": { "type": "Point", "coordinates": [ -84.158270621893408, 34.019860185640482 ] } },
{ "type": "Feature", "properties": { "name": "J's Asian Cafe", "rating": 4.1, "reviews": 270, "latitude": 34.063491851751863, "longitude": -84.214731713612096, "address": "11550 Jones Bridge Rd", "city": "Alpharetta", "state": "GA", "postcode": "30022" }, "geometry": { "type": "Point", "coordinates": [ -84.214731713612096, 34.063491851751863 ] } },
{ "type": "Feature", "properties": { "name": "Best Cajun Asian", "rating": 3.7, "reviews": 25, "latitude": 33.755529, "longitude": -84.3896734, "address": "50 Broad St NW", "city": "Atlanta", "state": "GA", "postcode": "30303" }, "geometry": { "type": "Point", "coordinates": [ -84.3896734, 33.755529 ] } },
{ "type": "Feature", "properties": { "name": "The Bowl", "rating": 4.4, "reviews": 407, "latitude": 33.943047, "longitude": -84.5158, "address": "369 Cobb Pkwy S", "city": "Marietta", "state": "GA", "postcode": "30062" }, "geometry": { "type": "Point", "coordinates": [ -84.5158, 33.943047 ] } },
{ "type": "Feature", "properties": { "name": "The BEP Corner", "rating": 4.8, "reviews": 128, "latitude": 33.942, "longitude": -84.159875, "address": "4500 Satellite Blvd", "city": "Duluth", "state": "GA", "postcode": "30096" }, "geometry": { "type": "Point", "coordinates": [ -84.159875, 33.942 ] } },
{ "type": "Feature", "properties": { "name": "WEI Authentic Chinese Cuisine", "rating": 4.0, "reviews": 241, "latitude": 33.951084, "longitude": -84.55144, "address": "35 S Marietta Pkwy SW", "city": "Marietta", "state": "GA", "postcode": "30064" }, "geometry": { "type": "Point", "coordinates": [ -84.55144, 33.951084 ] } },
{ "type": "Feature", "properties": { "name": "District III", "rating": 3.8, "reviews": 294, "latitude": 34.071005, "longitude": -84.27343, "address": "7140 Avalon Blvd", "city": "Alpharetta", "state": "GA", "postcode": "30009" }, "geometry": { "type": "Point", "coordinates": [ -84.27343, 34.071005 ] } },
{ "type": "Feature", "properties": { "name": "Caffe Bene", "rating": 3.7, "reviews": 144, "latitude": 34.03502539515717, "longitude": -84.050386387897078, "address": "3131 Lawrenceville Suwanee Rd", "city": "Suwanee", "state": "GA", "postcode": "30024" }, "geometry": { "type": "Point", "coordinates": [ -84.050386387897078, 34.03502539515717 ] } },
{ "type": "Feature", "properties": { "name": "26 Thai Kitchen & Bar", "rating": 4.5, "reviews": 966, "latitude": 33.82239, "longitude": -84.36917, "address": "541 Main St NE", "city": "Atlanta", "state": "GA", "postcode": "30324" }, "geometry": { "type": "Point", "coordinates": [ -84.36917, 33.82239 ] } },
{ "type": "Feature", "properties": { "name": "Baozi Asian Street Food", "rating": 4.7, "reviews": 439, "latitude": 33.961193, "longitude": -83.973016, "address": "248 E Crogan St", "city": "Lawrenceville", "state": "GA", "postcode": "30046" }, "geometry": { "type": "Point", "coordinates": [ -83.973016, 33.961193 ] } },
{ "type": "Feature", "properties": { "name": "I Luv Pho", "rating": 3.8, "reviews": 459, "latitude": 33.892939, "longitude": -84.283546, "address": "5145 Buford Hwy NE", "city": "Doraville", "state": "GA", "postcode": "30340" }, "geometry": { "type": "Point", "coordinates": [ -84.283546, 33.892939 ] } },
{ "type": "Feature", "properties": { "name": "Ph'East - A Far East Street Feast", "rating": 4.4, "reviews": 84, "latitude": 33.887951710078013, "longitude": -84.470546999986979, "address": "925 Battery Ave", "city": "Atlanta", "state": "GA", "postcode": "30339" }, "geometry": { "type": "Point", "coordinates": [ -84.470546999986979, 33.887951710078013 ] } },
{ "type": "Feature", "properties": { "name": "Le Colonial - Atlanta", "rating": 4.0, "reviews": 503, "latitude": 33.837408, "longitude": -84.380267, "address": "3035 Peachtree Rd NE", "city": "Atlanta", "state": "GA", "postcode": "30305" }, "geometry": { "type": "Point", "coordinates": [ -84.380267, 33.837408 ] } },
{ "type": "Feature", "properties": { "name": "Nom Nom Tea & Bites", "rating": 3.6, "reviews": 116, "latitude": 33.9427, "longitude": -84.1216, "address": "1500 Pleasant Hill Rd", "city": "Duluth", "state": "GA", "postcode": "30096" }, "geometry": { "type": "Point", "coordinates": [ -84.1216, 33.9427 ] } },
{ "type": "Feature", "properties": { "name": "Bento Cafe", "rating": 3.8, "reviews": 289, "latitude": 33.909536439262901, "longitude": -84.204196884586395, "address": "5495 Jimmy Carter Blvd", "city": "Norcross", "state": "GA", "postcode": "30093" }, "geometry": { "type": "Point", "coordinates": [ -84.204196884586395, 33.909536439262901 ] } },
{ "type": "Feature", "properties": { "name": "Silom Thai & Sushi", "rating": 4.2, "reviews": 330, "latitude": 33.846287, "longitude": -84.3586822, "address": "3345 Lenox Rd NE", "city": "Atlanta", "state": "GA", "postcode": "30326" }, "geometry": { "type": "Point", "coordinates": [ -84.3586822, 33.846287 ] } },
{ "type": "Feature", "properties": { "name": "Lucky Buddha", "rating": 1.9, "reviews": 220, "latitude": 33.7816549, "longitude": -84.4045299, "address": "531 10th St NW", "city": "Atlanta", "state": "GA", "postcode": "30318" }, "geometry": { "type": "Point", "coordinates": [ -84.4045299, 33.7816549 ] } },
{ "type": "Feature", "properties": { "name": "Tin Drum Asian Kitchen & Boba Tea Bar - Akers Mill Square", "rating": 2.5, "reviews": 163, "latitude": 33.882530970369992, "longitude": -84.46216890779408, "address": "2955 Cobb Pkwy SE", "city": "Atlanta", "state": "GA", "postcode": "30339" }, "geometry": { "type": "Point", "coordinates": [ -84.46216890779408, 33.882530970369992 ] } },
{ "type": "Feature", "properties": { "name": "Bangkok Thyme", "rating": 3.7, "reviews": 299, "latitude": 33.89016, "longitude": -84.38077, "address": "4969 Roswell Rd NE", "city": "Atlanta", "state": "GA", "postcode": "30342" }, "geometry": { "type": "Point", "coordinates": [ -84.38077, 33.89016 ] } },
{ "type": "Feature", "properties": { "name": "She Craft Co", "rating": 4.8, "reviews": 271, "latitude": 33.47801, "longitude": -84.59524, "address": "929 Senoia Rd", "city": "Tyrone", "state": "GA", "postcode": "30290" }, "geometry": { "type": "Point", "coordinates": [ -84.59524, 33.47801 ] } },
{ "type": "Feature", "properties": { "name": "Grand China Restaurant", "rating": 4.1, "reviews": 568, "latitude": 33.8341682325674, "longitude": -84.382375128546357, "address": "2905 Peachtree Rd NE", "city": "Atlanta", "state": "GA", "postcode": "30305" }, "geometry": { "type": "Point", "coordinates": [ -84.382375128546357, 33.8341682325674 ] } },
{ "type": "Feature", "properties": { "name": "The Coffee By Hand", "rating": 4.0, "reviews": 318, "latitude": 33.961861290538714, "longitude": -84.134638520932569, "address": "2180 Pleasant Hill Rd", "city": "Duluth", "state": "GA", "postcode": "30096" }, "geometry": { "type": "Point", "coordinates": [ -84.134638520932569, 33.961861290538714 ] } },
{ "type": "Feature", "properties": { "name": "Yao Atlanta", "rating": 3.8, "reviews": 246, "latitude": 33.920107854445902, "longitude": -84.3464522, "address": "237 Perimeter Center Pkwy NE", "city": "Dunwoody", "state": "GA", "postcode": "30346" }, "geometry": { "type": "Point", "coordinates": [ -84.3464522, 33.920107854445902 ] } },
{ "type": "Feature", "properties": { "name": "Sweet Hut Bakery & Cafe", "rating": 4.3, "reviews": 400, "latitude": 34.019764138840628, "longitude": -84.554150809244632, "address": "2795 Chastain Meadows Pkwy", "city": "Marietta", "state": "GA", "postcode": "30066" }, "geometry": { "type": "Point", "coordinates": [ -84.554150809244632, 34.019764138840628 ] } },
{ "type": "Feature", "properties": { "name": "Hot Cafe", "rating": 4.2, "reviews": 172, "latitude": 33.6110495292005, "longitude": -84.436131907270806, "address": "5286 Riverdale Rd", "city": "Atlanta", "state": "GA", "postcode": "30349" }, "geometry": { "type": "Point", "coordinates": [ -84.436131907270806, 33.6110495292005 ] } },
{ "type": "Feature", "properties": { "name": "Asian Fusion Cafe", "rating": 3.7, "reviews": 44, "latitude": 33.94159, "longitude": -84.270461, "address": "4957 Winters Chapel Rd", "city": "Dunwoody", "state": "GA", "postcode": "30360" }, "geometry": { "type": "Point", "coordinates": [ -84.270461, 33.94159 ] } },
{ "type": "Feature", "properties": { "name": "Mamak", "rating": 4.2, "reviews": 785, "latitude": 33.893454217040599, "longitude": -84.284760095179095, "address": "5150 Buford Hwy", "city": "Doraville", "state": "GA", "postcode": "30340" }, "geometry": { "type": "Point", "coordinates": [ -84.284760095179095, 33.893454217040599 ] } },
{ "type": "Feature", "properties": { "name": "Taichi Bubble Tea", "rating": 4.2, "reviews": 184, "latitude": 33.828108, "longitude": -84.332114, "address": "2484 Briarcliff Rd NE", "city": "Atlanta", "state": "GA", "postcode": "30329" }, "geometry": { "type": "Point", "coordinates": [ -84.332114, 33.828108 ] } },
{ "type": "Feature", "properties": { "name": "Marietta Crawfish", "rating": 4.0, "reviews": 105, "latitude": 33.9507371, "longitude": -84.5105929, "address": "1420 Roswell Rd", "city": "Marietta", "state": "GA", "postcode": "30068" }, "geometry": { "type": "Point", "coordinates": [ -84.5105929, 33.9507371 ] } },
{ "type": "Feature", "properties": { "name": "Tin Drum", "rating": 3.3, "reviews": 290, "latitude": 33.92940469, "longitude": -84.34361093, "address": "4530 Olde Perimeter Way", "city": "Dunwoody", "state": "GA", "postcode": "30346" }, "geometry": { "type": "Point", "coordinates": [ -84.34361093, 33.92940469 ] } },
{ "type": "Feature", "properties": { "name": "Nova Sushi Bar & Asian Bistro", "rating": 4.1, "reviews": 396, "latitude": 33.85299, "longitude": -84.35853, "address": "3637 Peachtree Rd NE", "city": "Atlanta", "state": "GA", "postcode": "30319" }, "geometry": { "type": "Point", "coordinates": [ -84.35853, 33.85299 ] } },
{ "type": "Feature", "properties": { "name": "Tin Drum Asian Kitchen & Boba Tea Bar - Lindbergh Plaza", "rating": 2.9, "reviews": 228, "latitude": 33.825599114103682, "longitude": -84.364860618238069, "address": "2561 Piedmont Rd NE", "city": "Atlanta", "state": "GA", "postcode": "30324" }, "geometry": { "type": "Point", "coordinates": [ -84.364860618238069, 33.825599114103682 ] } },
{ "type": "Feature", "properties": { "name": "Pho 24", "rating": 3.3, "reviews": 525, "latitude": 33.877385664141464, "longitude": -84.293430293865626, "address": "4646 Buford Hwy NE", "city": "Atlanta", "state": "GA", "postcode": "30341" }, "geometry": { "type": "Point", "coordinates": [ -84.293430293865626, 33.877385664141464 ] } },
{ "type": "Feature", "properties": { "name": "Cafe Mozart Bakery", "rating": 3.7, "reviews": 152, "latitude": 33.8965873718262, "longitude": -84.280555725097699, "address": "5301 Buford Hwy NE", "city": "Atlanta", "state": "GA", "postcode": "30340" }, "geometry": { "type": "Point", "coordinates": [ -84.280555725097699, 33.8965873718262 ] } },
{ "type": "Feature", "properties": { "name": "Rolls Village", "rating": 4.4, "reviews": 17, "latitude": 33.890792191366202, "longitude": -84.299854226410403, "address": "5389 New Peachtree Rd", "city": "Chamblee", "state": "GA", "postcode": "30341" }, "geometry": { "type": "Point", "coordinates": [ -84.299854226410403, 33.890792191366202 ] } },
{ "type": "Feature", "properties": { "name": "M Thai Street Food", "rating": 4.3, "reviews": 262, "latitude": 34.093072633627614, "longitude": -84.279914355046259, "address": "875 N Main St", "city": "Alpharetta", "state": "GA", "postcode": "30009" }, "geometry": { "type": "Point", "coordinates": [ -84.279914355046259, 34.093072633627614 ] } },
{ "type": "Feature", "properties": { "name": "Cafe Bistro", "rating": 4.1, "reviews": 70, "latitude": 33.853280298202897, "longitude": -84.361258147082495, "address": "3500 Peachtree Rd NE", "city": "Atlanta", "state": "GA", "postcode": "30326" }, "geometry": { "type": "Point", "coordinates": [ -84.361258147082495, 33.853280298202897 ] } },
{ "type": "Feature", "properties": { "name": "Fish Thyme", "rating": 4.5, "reviews": 631, "latitude": 34.050728, "longitude": -84.663654, "address": "3979 S Main St", "city": "Acworth", "state": "GA", "postcode": "30101" }, "geometry": { "type": "Point", "coordinates": [ -84.663654, 34.050728 ] } },
{ "type": "Feature", "properties": { "name": "Red Curry Thai", "rating": 4.4, "reviews": 244, "latitude": 33.96554, "longitude": -84.41374, "address": "4724 Lower Roswell Rd", "city": "Marietta", "state": "GA", "postcode": "30068" }, "geometry": { "type": "Point", "coordinates": [ -84.41374, 33.96554 ] } },
{ "type": "Feature", "properties": { "name": "Cuckoo’s Cafe", "rating": 4.3, "reviews": 18, "latitude": 33.870625748941322, "longitude": -84.01591426805291, "address": "1987 Scenic Hwy N", "city": "Snellville", "state": "GA", "postcode": "30078" }, "geometry": { "type": "Point", "coordinates": [ -84.01591426805291, 33.870625748941322 ] } },
{ "type": "Feature", "properties": { "name": "Pho Dai Loi 2", "rating": 4.0, "reviews": 1154, "latitude": 33.865179051043476, "longitude": -84.305009125799501, "address": "4186 Buford Hwy NE", "city": "Atlanta", "state": "GA", "postcode": "30345" }, "geometry": { "type": "Point", "coordinates": [ -84.305009125799501, 33.865179051043476 ] } },
{ "type": "Feature", "properties": { "name": "Pho Roswell", "rating": 4.3, "reviews": 272, "latitude": 34.057269, "longitude": -84.3819453, "address": "640 W Crossville Rd", "city": "Roswell", "state": "GA", "postcode": "30075" }, "geometry": { "type": "Point", "coordinates": [ -84.3819453, 34.057269 ] } },
{ "type": "Feature", "properties": { "name": "Colonial Kitchen and Bar", "rating": 4.3, "reviews": 175, "latitude": 33.908122064606054, "longitude": -84.37906395244751, "address": "5600 Roswell Rd", "city": "Sandy Springs", "state": "GA", "postcode": "30342" }, "geometry": { "type": "Point", "coordinates": [ -84.37906395244751, 33.908122064606054 ] } },
{ "type": "Feature", "properties": { "name": "Zoong Guk Jib", "rating": 3.9, "reviews": 62, "latitude": 34.00017, "longitude": -84.16845, "address": "3585 Peachtree Industrial Blvd", "city": "Duluth", "state": "GA", "postcode": "30096" }, "geometry": { "type": "Point", "coordinates": [ -84.16845, 34.00017 ] } },
{ "type": "Feature", "properties": { "name": "Poke Burri CODA", "rating": 3.7, "reviews": 40, "latitude": 33.775237730433986, "longitude": -84.388352597505431, "address": "756 W Peachtree St", "city": "Atlanta", "state": "GA", "postcode": "30308" }, "geometry": { "type": "Point", "coordinates": [ -84.388352597505431, 33.775237730433986 ] } },
{ "type": "Feature", "properties": { "name": "Pho Hoang Long", "rating": 4.2, "reviews": 472, "latitude": 33.902519143332299, "longitude": -84.543337420521098, "address": "371 Pat Mell Rd", "city": "Marietta", "state": "GA", "postcode": "30060" }, "geometry": { "type": "Point", "coordinates": [ -84.543337420521098, 33.902519143332299 ] } },
{ "type": "Feature", "properties": { "name": "Tin Drum Asian Kitchen & Boba Tea Bar - Roswell Market Place", "rating": 2.8, "reviews": 184, "latitude": 34.043548665819202, "longitude": -84.342822621535163, "address": "10800 Alpharetta Hwy", "city": "Roswell", "state": "GA", "postcode": "30076" }, "geometry": { "type": "Point", "coordinates": [ -84.342822621535163, 34.043548665819202 ] } },
{ "type": "Feature", "properties": { "name": "Peachy Corners Cafe", "rating": 4.3, "reviews": 56, "latitude": 33.968813, "longitude": -84.257384, "address": "6365 Spalding Dr", "city": "Peachtree Corners", "state": "GA", "postcode": "30092" }, "geometry": { "type": "Point", "coordinates": [ -84.257384, 33.968813 ] } },
{ "type": "Feature", "properties": { "name": "Panda Express", "rating": 3.5, "reviews": 16, "latitude": 33.77426066249668, "longitude": -84.398844011647014, "address": "350 Ferst Drive Nw", "city": "Atlanta", "state": "GA", "postcode": "30332" }, "geometry": { "type": "Point", "coordinates": [ -84.398844011647014, 33.77426066249668 ] } },
{ "type": "Feature", "properties": { "name": "Cherians - Decatur", "rating": 4.2, "reviews": 53, "latitude": 33.799113, "longitude": -84.278654, "address": "751 Dekalb Industrial Way", "city": "Decatur", "state": "GA", "postcode": "30033" }, "geometry": { "type": "Point", "coordinates": [ -84.278654, 33.799113 ] } },
{ "type": "Feature", "properties": { "name": "July Moon Bakery and Café", "rating": 4.1, "reviews": 94, "latitude": 34.069135, "longitude": -84.2978811, "address": "230 S Main St", "city": "Alpharetta", "state": "GA", "postcode": "30009" }, "geometry": { "type": "Point", "coordinates": [ -84.2978811, 34.069135 ] } },
{ "type": "Feature", "properties": { "name": "Zab-E-Lee Thai & Sushi", "rating": 4.0, "reviews": 436, "latitude": 33.623942, "longitude": -84.47657, "address": "4837 Old National Hwy", "city": "College Park", "state": "GA", "postcode": "30337" }, "geometry": { "type": "Point", "coordinates": [ -84.47657, 33.623942 ] } },
{ "type": "Feature", "properties": { "name": "H Mart - Doraville", "rating": 4.1, "reviews": 320, "latitude": 33.907975474600597, "longitude": -84.288070946931796, "address": "6035 Peachtree Rd.", "city": "Doraville", "state": "GA", "postcode": "30360" }, "geometry": { "type": "Point", "coordinates": [ -84.288070946931796, 33.907975474600597 ] } },
{ "type": "Feature", "properties": { "name": "The Forks USA", "rating": 4.3, "reviews": 19, "latitude": 34.029257, "longitude": -84.043505, "address": "80 Horizon Dr", "city": "Suwanee", "state": "GA", "postcode": "30024" }, "geometry": { "type": "Point", "coordinates": [ -84.043505, 34.029257 ] } },
{ "type": "Feature", "properties": { "name": "90 Kabob", "rating": 3.8, "reviews": 66, "latitude": 33.884047835595702, "longitude": -84.287353791296496, "address": "4897 Buford Hwy", "city": "Chamblee", "state": "GA", "postcode": "30341" }, "geometry": { "type": "Point", "coordinates": [ -84.287353791296496, 33.884047835595702 ] } },
{ "type": "Feature", "properties": { "name": "BullGogi", "rating": 4.4, "reviews": 234, "latitude": 33.7904, "longitude": -84.30485, "address": "2140 N Decatur Rd", "city": "Decatur", "state": "GA", "postcode": "30033" }, "geometry": { "type": "Point", "coordinates": [ -84.30485, 33.7904 ] } },
{ "type": "Feature", "properties": { "name": "Green China Cafe", "rating": 4.4, "reviews": 181, "latitude": 34.0875629, "longitude": -84.1644725, "address": "3105 Peachtree Pkwy", "city": "Suwanee", "state": "GA", "postcode": "30024" }, "geometry": { "type": "Point", "coordinates": [ -84.1644725, 34.0875629 ] } },
{ "type": "Feature", "properties": { "name": "Northern China Eatery", "rating": 3.9, "reviews": 532, "latitude": 33.892657988581583, "longitude": -84.2837722036071, "address": "5141 Buford Hwy", "city": "Doraville", "state": "GA", "postcode": "30340" }, "geometry": { "type": "Point", "coordinates": [ -84.2837722036071, 33.892657988581583 ] } },
{ "type": "Feature", "properties": { "name": "O Mi Ga", "rating": 4.0, "reviews": 29, "latitude": 33.754032, "longitude": -84.379867, "address": "209 Edgewood Ave SE", "city": "Atlanta", "state": "GA", "postcode": "30303" }, "geometry": { "type": "Point", "coordinates": [ -84.379867, 33.754032 ] } },
{ "type": "Feature", "properties": { "name": "Fluffy Fluffy Dessert Cafe", "rating": 4.2, "reviews": 132, "latitude": 33.960927203381488, "longitude": -84.134018291504916, "address": "2180 Pleasant Hill Rd", "city": "Duluth", "state": "GA", "postcode": "30096" }, "geometry": { "type": "Point", "coordinates": [ -84.134018291504916, 33.960927203381488 ] } },
{ "type": "Feature", "properties": { "name": "Pho Dakao", "rating": 4.1, "reviews": 156, "latitude": 34.011996836451146, "longitude": -84.561719660480549, "address": "425 Ernest Barrett Pkwy", "city": "Kennesaw", "state": "GA", "postcode": "30144" }, "geometry": { "type": "Point", "coordinates": [ -84.561719660480549, 34.011996836451146 ] } },
{ "type": "Feature", "properties": { "name": "Vincent Bakery Cafe", "rating": 3.8, "reviews": 71, "latitude": 33.96596, "longitude": -84.14124, "address": "2442 Pleasant Hill Rd", "city": "Duluth", "state": "GA", "postcode": "30096" }, "geometry": { "type": "Point", "coordinates": [ -84.14124, 33.96596 ] } },
{ "type": "Feature", "properties": { "name": "Paris Banh Mi Alpharetta", "rating": 4.7, "reviews": 47, "latitude": 34.095739291123465, "longitude": -84.276438235257871, "address": "12872 Hwy 9 N", "city": "Alpharetta", "state": "GA", "postcode": "30004" }, "geometry": { "type": "Point", "coordinates": [ -84.276438235257871, 34.095739291123465 ] } },
{ "type": "Feature", "properties": { "name": "J-Bistro", "rating": 4.4, "reviews": 140, "latitude": 33.908034, "longitude": -84.287976, "address": "6035 Peachtree Rd", "city": "Atlanta", "state": "GA", "postcode": "30340" }, "geometry": { "type": "Point", "coordinates": [ -84.287976, 33.908034 ] } },
{ "type": "Feature", "properties": { "name": "Sweet Hut Bakery & Cafe", "rating": 3.8, "reviews": 68, "latitude": 33.846327287960399, "longitude": -84.362019449472399, "address": "3393 Peachtree Rd NE", "city": "Atlanta", "state": "GA", "postcode": "30326" }, "geometry": { "type": "Point", "coordinates": [ -84.362019449472399, 33.846327287960399 ] } },
{ "type": "Feature", "properties": { "name": "Food Terminal", "rating": 4.2, "reviews": 1823, "latitude": 33.887474840043083, "longitude": -84.287744358667524, "address": "5000 Buford Hwy NE", "city": "Chamblee", "state": "GA", "postcode": "30341" }, "geometry": { "type": "Point", "coordinates": [ -84.287744358667524, 33.887474840043083 ] } },
{ "type": "Feature", "properties": { "name": "KITCHEN 121", "rating": 4.7, "reviews": 445, "latitude": 34.00158, "longitude": -84.08227, "address": "1611 Satellite Blvd", "city": "Duluth", "state": "GA", "postcode": "30097" }, "geometry": { "type": "Point", "coordinates": [ -84.08227, 34.00158 ] } },
{ "type": "Feature", "properties": { "name": "Cafe Rothem", "rating": 4.8, "reviews": 85, "latitude": 34.00046, "longitude": -84.169746, "address": "3585 Peachtree Industrial Blvd", "city": "Duluth", "state": "GA", "postcode": "30096" }, "geometry": { "type": "Point", "coordinates": [ -84.169746, 34.00046 ] } },
{ "type": "Feature", "properties": { "name": "Tum Pok Pok", "rating": 4.1, "reviews": 391, "latitude": 33.888241, "longitude": -84.288847, "address": "5000 Buford Hwy NE", "city": "Atlanta", "state": "GA", "postcode": "30341" }, "geometry": { "type": "Point", "coordinates": [ -84.288847, 33.888241 ] } },
{ "type": "Feature", "properties": { "name": "P.F. Chang's", "rating": 2.6, "reviews": 424, "latitude": 34.038746, "longitude": -84.307132, "address": "7925 N Point Pkwy", "city": "Alpharetta", "state": "GA", "postcode": "30022" }, "geometry": { "type": "Point", "coordinates": [ -84.307132, 34.038746 ] } },
{ "type": "Feature", "properties": { "name": "Orange Coffee Bar", "rating": 4.1, "reviews": 238, "latitude": 33.9659547353479, "longitude": -84.134302096881996, "address": "3473 Old Norcross Rd", "city": "Duluth", "state": "GA", "postcode": "30096" }, "geometry": { "type": "Point", "coordinates": [ -84.134302096881996, 33.9659547353479 ] } },
{ "type": "Feature", "properties": { "name": "Pho Dakao", "rating": 4.2, "reviews": 359, "latitude": 33.893448933529314, "longitude": -84.477402684694368, "address": "2411 Cobb Pkwy", "city": "Smyrna", "state": "GA", "postcode": "30080" }, "geometry": { "type": "Point", "coordinates": [ -84.477402684694368, 33.893448933529314 ] } },
{ "type": "Feature", "properties": { "name": "4.0 Ice Cream & Drinks", "rating": 4.0, "reviews": 71, "latitude": 33.908047, "longitude": -84.288187, "address": "6035 Peachtree Rd", "city": "Doraville", "state": "GA", "postcode": "30360" }, "geometry": { "type": "Point", "coordinates": [ -84.288187, 33.908047 ] } },
{ "type": "Feature", "properties": { "name": "Sweet Hut Bakery & Cafe", "rating": 4.0, "reviews": 1123, "latitude": 33.893452409127562, "longitude": -84.284357286473195, "address": "5150 Buford Hwy", "city": "Doraville", "state": "GA", "postcode": "30340" }, "geometry": { "type": "Point", "coordinates": [ -84.284357286473195, 33.893452409127562 ] } },
{ "type": "Feature", "properties": { "name": "la Madeleine", "rating": 3.4, "reviews": 262, "latitude": 34.061716383179373, "longitude": -83.991741567667304, "address": "1795 Mall Of Georgia Blvd", "city": "Buford", "state": "GA", "postcode": "30519" }, "geometry": { "type": "Point", "coordinates": [ -83.991741567667304, 34.061716383179373 ] } },
{ "type": "Feature", "properties": { "name": "Le Fat", "rating": 3.8, "reviews": 497, "latitude": 33.777566403150601, "longitude": -84.408475309610395, "address": "935 Marietta St NW", "city": "Atlanta", "state": "GA", "postcode": "30318" }, "geometry": { "type": "Point", "coordinates": [ -84.408475309610395, 33.777566403150601 ] } },
{ "type": "Feature", "properties": { "name": "Hibachi Stop", "rating": 3.9, "reviews": 124, "latitude": 33.923603, "longitude": -84.470627, "address": "2856 Delk Rd", "city": "Marietta", "state": "GA", "postcode": "30067" }, "geometry": { "type": "Point", "coordinates": [ -84.470627, 33.923603 ] } },
{ "type": "Feature", "properties": { "name": "Nam Phuong", "rating": 4.1, "reviews": 757, "latitude": 33.86113, "longitude": -84.30737, "address": "4051 Buford Hwy NE", "city": "Atlanta", "state": "GA", "postcode": "30345" }, "geometry": { "type": "Point", "coordinates": [ -84.30737, 33.86113 ] } },
{ "type": "Feature", "properties": { "name": "Yes Formosa", "rating": 4.3, "reviews": 71, "latitude": 33.952161, "longitude": -84.141626, "address": "3875 Venture Dr", "city": "Duluth", "state": "GA", "postcode": "30096" }, "geometry": { "type": "Point", "coordinates": [ -84.141626, 33.952161 ] } },
{ "type": "Feature", "properties": { "name": "Gong Cha", "rating": 4.6, "reviews": 24, "latitude": 34.004822, "longitude": -84.085071, "address": "1299 Old Peachtree Rd NW", "city": "Suwanee", "state": "GA", "postcode": "30024" }, "geometry": { "type": "Point", "coordinates": [ -84.085071, 34.004822 ] } },
{ "type": "Feature", "properties": { "name": "Proscenium Cafe and Market", "rating": 4.2, "reviews": 14, "latitude": 33.786326, "longitude": -84.383714, "address": "1170 Peachtree St NE", "city": "Atlanta", "state": "GA", "postcode": "30309" }, "geometry": { "type": "Point", "coordinates": [ -84.383714, 33.786326 ] } },
{ "type": "Feature", "properties": { "name": "New Super Pho", "rating": 3.5, "reviews": 358, "latitude": 33.96340333, "longitude": -84.125415, "address": "3330 Satellite Blvd", "city": "Duluth", "state": "GA", "postcode": "30096" }, "geometry": { "type": "Point", "coordinates": [ -84.125415, 33.96340333 ] } },
{ "type": "Feature", "properties": { "name": "Ding Tea Doraville", "rating": 4.2, "reviews": 94, "latitude": 33.893522, "longitude": -84.2848662, "address": "5150 Buford Hwy NE", "city": "Doraville", "state": "GA", "postcode": "30340" }, "geometry": { "type": "Point", "coordinates": [ -84.2848662, 33.893522 ] } },
{ "type": "Feature", "properties": { "name": "Batavia Atlanta Indonesian Restaurant", "rating": 4.3, "reviews": 136, "latitude": 33.896423523746428, "longitude": -84.285332245117516, "address": "3640 Shallowford Rd NE", "city": "Doraville", "state": "GA", "postcode": "30340" }, "geometry": { "type": "Point", "coordinates": [ -84.285332245117516, 33.896423523746428 ] } },
{ "type": "Feature", "properties": { "name": "Tous Les Jours", "rating": 4.0, "reviews": 43, "latitude": 33.90792, "longitude": -84.28768, "address": "6035 Peachtree Rd", "city": "Doraville", "state": "GA", "postcode": "30360" }, "geometry": { "type": "Point", "coordinates": [ -84.28768, 33.90792 ] } },
{ "type": "Feature", "properties": { "name": "Sushiology", "rating": 4.3, "reviews": 583, "latitude": 33.994634, "longitude": -84.592345, "address": "1615 Ridenour Blvd", "city": "Kennesaw", "state": "GA", "postcode": "30152" }, "geometry": { "type": "Point", "coordinates": [ -84.592345, 33.994634 ] } },
{ "type": "Feature", "properties": { "name": "Tin Drum Asian Kitchen & Boba Tea Bar - North Druid Hills", "rating": 3.1, "reviews": 168, "latitude": 33.82850756, "longitude": -84.32906461, "address": "2566 Briarcliff Rd NE", "city": "Atlanta", "state": "GA", "postcode": "30329" }, "geometry": { "type": "Point", "coordinates": [ -84.32906461, 33.82850756 ] } },
{ "type": "Feature", "properties": { "name": "Pho Dai Loi", "rating": 4.3, "reviews": 476, "latitude": 33.6438, "longitude": -84.36439, "address": "4061 Jonesboro Rd", "city": "Forest Park", "state": "GA", "postcode": "30297" }, "geometry": { "type": "Point", "coordinates": [ -84.36439, 33.6438 ] } },
{ "type": "Feature", "properties": { "name": "Breadwinner Cafe & Bakery", "rating": 4.0, "reviews": 38, "latitude": 33.947445, "longitude": -84.336561, "address": "5482 Chamblee Dunwoody Rd", "city": "Dunwoody", "state": "GA", "postcode": "30338" }, "geometry": { "type": "Point", "coordinates": [ -84.336561, 33.947445 ] } },
{ "type": "Feature", "properties": { "name": "Fusion House", "rating": 3.9, "reviews": 75, "latitude": 33.5772826, "longitude": -84.4122573, "address": "6497 Hwy 85", "city": "Riverdale", "state": "GA", "postcode": "30274" }, "geometry": { "type": "Point", "coordinates": [ -84.4122573, 33.5772826 ] } },
{ "type": "Feature", "properties": { "name": "Canton Buddha", "rating": 2.9, "reviews": 193, "latitude": 33.834321193734802, "longitude": -84.383694341278201, "address": "2900 Peachtree Rd NW", "city": "Atlanta", "state": "GA", "postcode": "30305" }, "geometry": { "type": "Point", "coordinates": [ -84.383694341278201, 33.834321193734802 ] } },
{ "type": "Feature", "properties": { "name": "Tani Thai Restaurant", "rating": 4.4, "reviews": 186, "latitude": 34.120185116638631, "longitude": -84.005732956156876, "address": "15 East Main St", "city": "Buford", "state": "GA", "postcode": "30518" }, "geometry": { "type": "Point", "coordinates": [ -84.005732956156876, 34.120185116638631 ] } },
{ "type": "Feature", "properties": { "name": "Kabobs House", "rating": 3.7, "reviews": 98, "latitude": 33.9613, "longitude": -84.142322, "address": "3780 Old Norcross Rd", "city": "Duluth", "state": "GA", "postcode": "30096" }, "geometry": { "type": "Point", "coordinates": [ -84.142322, 33.9613 ] } },
{ "type": "Feature", "properties": { "name": "Hankook Taqueria", "rating": 4.3, "reviews": 1048, "latitude": 33.811352, "longitude": -84.431628, "address": "1341 Collier Rd NW", "city": "Atlanta", "state": "GA", "postcode": "30318" }, "geometry": { "type": "Point", "coordinates": [ -84.431628, 33.811352 ] } },
{ "type": "Feature", "properties": { "name": "Hopstix", "rating": 4.2, "reviews": 561, "latitude": 33.890718601110784, "longitude": -84.303006436167863, "address": "3404 Pierce Dr NE", "city": "Chamblee", "state": "GA", "postcode": "30341" }, "geometry": { "type": "Point", "coordinates": [ -84.303006436167863, 33.890718601110784 ] } },
{ "type": "Feature", "properties": { "name": "Saigon Cafe", "rating": 3.4, "reviews": 321, "latitude": 33.791335, "longitude": -84.30575, "address": "2092 N Decatur Rd", "city": "Decatur", "state": "GA", "postcode": "30033" }, "geometry": { "type": "Point", "coordinates": [ -84.30575, 33.791335 ] } },
{ "type": "Feature", "properties": { "name": "Mandarin Cafe", "rating": 3.2, "reviews": 149, "latitude": 34.049036, "longitude": -84.601209, "address": "3895 Cherokee St NW", "city": "Kennesaw", "state": "GA", "postcode": "30144" }, "geometry": { "type": "Point", "coordinates": [ -84.601209, 34.049036 ] } },
{ "type": "Feature", "properties": { "name": "Tuk Tuk Thai Food Loft", "rating": 3.9, "reviews": 1086, "latitude": 33.801653497623299, "longitude": -84.392273944412494, "address": "1745 Peachtree St NE", "city": "Atlanta", "state": "GA", "postcode": "30309" }, "geometry": { "type": "Point", "coordinates": [ -84.392273944412494, 33.801653497623299 ] } },
{ "type": "Feature", "properties": { "name": "Greatea", "rating": 4.5, "reviews": 203, "latitude": 34.034727, "longitude": -84.18494, "address": "10475 Medlock Bridge Rd", "city": "Johns Creek", "state": "GA", "postcode": "30097" }, "geometry": { "type": "Point", "coordinates": [ -84.18494, 34.034727 ] } },
{ "type": "Feature", "properties": { "name": "PHO NAM ATL", "rating": 4.0, "reviews": 107, "latitude": 33.756854895410633, "longitude": -84.363882351966367, "address": "99 Krog St NE", "city": "Atlanta", "state": "GA", "postcode": "30307" }, "geometry": { "type": "Point", "coordinates": [ -84.363882351966367, 33.756854895410633 ] } },
{ "type": "Feature", "properties": { "name": "Tiny Bubbles Tea Bar", "rating": 4.3, "reviews": 357, "latitude": 33.952500442372099, "longitude": -84.550214148338696, "address": "21 W Park Sq NE", "city": "Marietta", "state": "GA", "postcode": "30060" }, "geometry": { "type": "Point", "coordinates": [ -84.550214148338696, 33.952500442372099 ] } },
{ "type": "Feature", "properties": { "name": "Botiwalla by Chai Pani", "rating": 4.4, "reviews": 618, "latitude": 33.772869, "longitude": -84.366016, "address": "675 Ponce De Leon Ave NE", "city": "Atlanta", "state": "GA", "postcode": "30308" }, "geometry": { "type": "Point", "coordinates": [ -84.366016, 33.772869 ] } },
{ "type": "Feature", "properties": { "name": "R. Thomas Deluxe Grill", "rating": 3.9, "reviews": 1177, "latitude": 33.804511, "longitude": -84.393731, "address": "1812 Peachtree St NW", "city": "Atlanta", "state": "GA", "postcode": "30309" }, "geometry": { "type": "Point", "coordinates": [ -84.393731, 33.804511 ] } },
{ "type": "Feature", "properties": { "name": "Chinese Dhaba", "rating": 3.5, "reviews": 236, "latitude": 33.798204, "longitude": -84.28088, "address": "1713 Church St", "city": "Decatur", "state": "GA", "postcode": "30033" }, "geometry": { "type": "Point", "coordinates": [ -84.28088, 33.798204 ] } },
{ "type": "Feature", "properties": { "name": "Man Chun Hong", "rating": 4.0, "reviews": 377, "latitude": 33.912829256241402, "longitude": -84.261997528374195, "address": "5953 Buford Hwy NE", "city": "Atlanta", "state": "GA", "postcode": "30340" }, "geometry": { "type": "Point", "coordinates": [ -84.261997528374195, 33.912829256241402 ] } },
{ "type": "Feature", "properties": { "name": "The Café & Bar", "rating": 4.3, "reviews": 7, "latitude": 33.849046434674399, "longitude": -84.366254866795302, "address": "3376 Peachtree Rd NE", "city": "Atlanta", "state": "GA", "postcode": "30326" }, "geometry": { "type": "Point", "coordinates": [ -84.366254866795302, 33.849046434674399 ] } },
{ "type": "Feature", "properties": { "name": "China Feng", "rating": 2.9, "reviews": 105, "latitude": 33.836915798226897, "longitude": -84.336118024549293, "address": "3062 Buford Hwy NE", "city": "Atlanta", "state": "GA", "postcode": "30329" }, "geometry": { "type": "Point", "coordinates": [ -84.336118024549293, 33.836915798226897 ] } },
{ "type": "Feature", "properties": { "name": "Tin Drum Asian Kitchen & Boba Tea Bar - Decatur", "rating": 3.5, "reviews": 167, "latitude": 33.79337, "longitude": -84.28299, "address": "1565 Church St", "city": "Decatur", "state": "GA", "postcode": "30033" }, "geometry": { "type": "Point", "coordinates": [ -84.28299, 33.79337 ] } },
{ "type": "Feature", "properties": { "name": "Siam Thai Restaurant", "rating": 3.9, "reviews": 292, "latitude": 33.774455442614503, "longitude": -84.295876470550553, "address": "123 Sycamore St", "city": "Decatur", "state": "GA", "postcode": "30033" }, "geometry": { "type": "Point", "coordinates": [ -84.295876470550553, 33.774455442614503 ] } },
{ "type": "Feature", "properties": { "name": "Saigon Cafe", "rating": 3.9, "reviews": 197, "latitude": 34.0760688, "longitude": -83.9840415, "address": "3380 Buford Dr", "city": "Buford", "state": "GA", "postcode": "30519" }, "geometry": { "type": "Point", "coordinates": [ -83.9840415, 34.0760688 ] } },
{ "type": "Feature", "properties": { "name": "Ministop Chinese Cuisine", "rating": 3.7, "reviews": 167, "latitude": 34.02994746609005, "longitude": -84.655970903639485, "address": "3103 Cobb Pkwy NW", "city": "Kennesaw", "state": "GA", "postcode": "30152" }, "geometry": { "type": "Point", "coordinates": [ -84.655970903639485, 34.02994746609005 ] } },
{ "type": "Feature", "properties": { "name": "Pho King", "rating": 3.7, "reviews": 286, "latitude": 33.779982, "longitude": -84.388699, "address": "950 W Peachtree St NW", "city": "Atlanta", "state": "GA", "postcode": "30309" }, "geometry": { "type": "Point", "coordinates": [ -84.388699, 33.779982 ] } },
{ "type": "Feature", "properties": { "name": "Pho 24 - Atlanta", "rating": 2.7, "reviews": 104, "latitude": 33.793019037942102, "longitude": -84.397095002239666, "address": "264 19th St NW", "city": "Atlanta", "state": "GA", "postcode": "30363" }, "geometry": { "type": "Point", "coordinates": [ -84.397095002239666, 33.793019037942102 ] } },
{ "type": "Feature", "properties": { "name": "Homer's Cafe @ SSC", "rating": 3.6, "reviews": 7, "latitude": 33.865504057241729, "longitude": -84.48141031403479, "address": "2455 Paces Ferry Rd", "city": "Atlanta", "state": "GA", "postcode": "30080" }, "geometry": { "type": "Point", "coordinates": [ -84.48141031403479, 33.865504057241729 ] } },
{ "type": "Feature", "properties": { "name": "Quoc Huong Banh Mi Fast Food", "rating": 4.4, "reviews": 600, "latitude": 33.892586729790814, "longitude": -84.285125461557598, "address": "5150 Buford Hwy NE", "city": "Atlanta", "state": "GA", "postcode": "30340" }, "geometry": { "type": "Point", "coordinates": [ -84.285125461557598, 33.892586729790814 ] } },
{ "type": "Feature", "properties": { "name": "Tin Drum Asian Kitchen & Boba Tea Bar - Sandy Springs", "rating": 3.5, "reviews": 112, "latitude": 33.914946975444053, "longitude": -84.380227747850412, "address": "5840 Roswell Rd", "city": "Sandy Springs", "state": "GA", "postcode": "30328" }, "geometry": { "type": "Point", "coordinates": [ -84.380227747850412, 33.914946975444053 ] } },
{ "type": "Feature", "properties": { "name": "We Suki Suki", "rating": 4.5, "reviews": 297, "latitude": 33.740993136351747, "longitude": -84.346479540101527, "address": "479-B Flat Shoals Ave SE", "city": "Atlanta", "state": "GA", "postcode": "30316" }, "geometry": { "type": "Point", "coordinates": [ -84.346479540101527, 33.740993136351747 ] } },
{ "type": "Feature", "properties": { "name": "Corner Bakery", "rating": 3.8, "reviews": 215, "latitude": 33.84826015, "longitude": -84.36737472, "address": "3368 Peachtree Rd NE", "city": "Atlanta", "state": "GA", "postcode": "30326" }, "geometry": { "type": "Point", "coordinates": [ -84.36737472, 33.84826015 ] } },
{ "type": "Feature", "properties": { "name": "Sweet Auburn BBQ", "rating": 4.1, "reviews": 806, "latitude": 33.772481, "longitude": -84.352746, "address": "656 N Highland Ave NE", "city": "Atlanta", "state": "GA", "postcode": "30306" }, "geometry": { "type": "Point", "coordinates": [ -84.352746, 33.772481 ] } },
{ "type": "Feature", "properties": { "name": "Thaicoon & Sushi Bar", "rating": 3.9, "reviews": 433, "latitude": 33.8044395664894, "longitude": -84.3355759796234, "address": "1799 Briarcliff Rd NE", "city": "Atlanta", "state": "GA", "postcode": "30306" }, "geometry": { "type": "Point", "coordinates": [ -84.3355759796234, 33.8044395664894 ] } },
{ "type": "Feature", "properties": { "name": "Pho Ga Tony Tony", "rating": 4.3, "reviews": 64, "latitude": 33.90891, "longitude": -84.204725, "address": "5495 Jimmy Carter Blvd", "city": "Norcross", "state": "GA", "postcode": "30093" }, "geometry": { "type": "Point", "coordinates": [ -84.204725, 33.90891 ] } },
{ "type": "Feature", "properties": { "name": "Fire Stone Chinese Cuisine", "rating": 4.4, "reviews": 551, "latitude": 34.009615, "longitude": -84.575366, "address": "840 Ernest W Barrett Pkwy NW", "city": "Kennesaw", "state": "GA", "postcode": "30144" }, "geometry": { "type": "Point", "coordinates": [ -84.575366, 34.009615 ] } },
{ "type": "Feature", "properties": { "name": "Circle Poke", "rating": 4.5, "reviews": 121, "latitude": 33.7822186, "longitude": -84.407767882208859, "address": "1000 Northside Dr NW", "city": "Atlanta", "state": "GA", "postcode": "30318" }, "geometry": { "type": "Point", "coordinates": [ -84.407767882208859, 33.782218600000043 ] } },
{ "type": "Feature", "properties": { "name": "Huy's Sandwich", "rating": 4.1, "reviews": 183, "latitude": 33.907138506414896, "longitude": -84.201629736534841, "address": "6100 Live Oak Pkwy", "city": "Norcross", "state": "GA", "postcode": "30093" }, "geometry": { "type": "Point", "coordinates": [ -84.201629736534841, 33.907138506414896 ] } },
{ "type": "Feature", "properties": { "name": "Sho Spicy", "rating": 4.2, "reviews": 145, "latitude": 33.88946, "longitude": -84.38167, "address": "4920 Roswell Rd", "city": "Atlanta", "state": "GA", "postcode": "30342" }, "geometry": { "type": "Point", "coordinates": [ -84.38167, 33.88946 ] } },
{ "type": "Feature", "properties": { "name": "Ru Sans", "rating": 3.1, "reviews": 488, "latitude": 33.758959812199997, "longitude": -84.348939657200006, "address": "1220 Caroline St NE", "city": "Atlanta", "state": "GA", "postcode": "30307" }, "geometry": { "type": "Point", "coordinates": [ -84.348939657200006, 33.758959812199997 ] } },
{ "type": "Feature", "properties": { "name": "Matcha Cafe Maiko", "rating": 4.3, "reviews": 167, "latitude": 33.956745167375196, "longitude": -84.134681, "address": "2131 Pleasant Hill Rd", "city": "Duluth", "state": "GA", "postcode": "30096" }, "geometry": { "type": "Point", "coordinates": [ -84.134681, 33.956745167375196 ] } },
{ "type": "Feature", "properties": { "name": "Kura Revolving Sushi Bar", "rating": 3.7, "reviews": 871, "latitude": 33.9077, "longitude": -84.28803, "address": "6035 Peachtree Blvd", "city": "Doraville", "state": "GA", "postcode": "30360" }, "geometry": { "type": "Point", "coordinates": [ -84.28803, 33.9077 ] } },
{ "type": "Feature", "properties": { "name": "Yummy Spicy", "rating": 4.1, "reviews": 236, "latitude": 33.89376, "longitude": -84.28437, "address": "5164 Buford Hwy NE", "city": "Doraville", "state": "GA", "postcode": "30340" }, "geometry": { "type": "Point", "coordinates": [ -84.28437, 33.89376 ] } },
{ "type": "Feature", "properties": { "name": "Pho Dai Nam", "rating": 4.4, "reviews": 177, "latitude": 33.907721387255428, "longitude": -84.204154529346653, "address": "5495 Jimmy Carter Blvd", "city": "Norcross", "state": "GA", "postcode": "30093" }, "geometry": { "type": "Point", "coordinates": [ -84.204154529346653, 33.907721387255428 ] } },
{ "type": "Feature", "properties": { "name": "White Windmill Bakery and Cafe", "rating": 4.3, "reviews": 66, "latitude": 33.978491930582706, "longitude": -84.097633203740131, "address": "2200 Duluth Hwy", "city": "Duluth", "state": "GA", "postcode": "30097" }, "geometry": { "type": "Point", "coordinates": [ -84.097633203740131, 33.978491930582706 ] } },
{ "type": "Feature", "properties": { "name": "Hong Kong BBQ", "rating": 3.8, "reviews": 109, "latitude": 33.8907484, "longitude": -84.3001492, "address": "5385 New Peachtree Rd", "city": "Chamblee", "state": "GA", "postcode": "30341" }, "geometry": { "type": "Point", "coordinates": [ -84.3001492, 33.8907484 ] } },
{ "type": "Feature", "properties": { "name": "Taqueria Tsunami", "rating": 4.2, "reviews": 441, "latitude": 34.018556995368499, "longitude": -84.312014928618495, "address": "1570 Holcomb Bridge Rd", "city": "Roswell", "state": "GA", "postcode": "30076" }, "geometry": { "type": "Point", "coordinates": [ -84.312014928618495, 34.018556995368499 ] } },
{ "type": "Feature", "properties": { "name": "Thai Taste Cusine", "rating": 4.3, "reviews": 201, "latitude": 34.068345825448503, "longitude": -84.520839415490599, "address": "4796 Canton Rd", "city": "Marietta", "state": "GA", "postcode": "30066" }, "geometry": { "type": "Point", "coordinates": [ -84.520839415490599, 34.068345825448503 ] } },
{ "type": "Feature", "properties": { "name": "China Buffet", "rating": 3.2, "reviews": 93, "latitude": 33.7936351, "longitude": -84.274095, "address": "2887 N Decatur Rd", "city": "Decatur", "state": "GA", "postcode": "30033" }, "geometry": { "type": "Point", "coordinates": [ -84.274095, 33.7936351 ] } },
{ "type": "Feature", "properties": { "name": "Be Banh Mi", "rating": 3.9, "reviews": 108, "latitude": 33.897541, "longitude": -84.281948, "address": "5302 Buford Hwy NE", "city": "Doraville", "state": "GA", "postcode": "30340" }, "geometry": { "type": "Point", "coordinates": [ -84.281948, 33.897541 ] } },
{ "type": "Feature", "properties": { "name": "Wow Pho & Grill", "rating": 4.0, "reviews": 164, "latitude": 34.113154, "longitude": -84.580774, "address": "6424 Bells Ferry Rd", "city": "Woodstock", "state": "GA", "postcode": "30189" }, "geometry": { "type": "Point", "coordinates": [ -84.580774, 34.113154 ] } },
{ "type": "Feature", "properties": { "name": "Oriental Cafe", "rating": 3.2, "reviews": 97, "latitude": 33.867076314478361, "longitude": -84.627457677298167, "address": "2860 E W Connector", "city": "Austell", "state": "GA", "postcode": "30106" }, "geometry": { "type": "Point", "coordinates": [ -84.627457677298167, 33.867076314478361 ] } },
{ "type": "Feature", "properties": { "name": "Quickly", "rating": 3.1, "reviews": 320, "latitude": 33.961404165405945, "longitude": -84.141981066733493, "address": "3780 Old Norcross Rd", "city": "Duluth", "state": "GA", "postcode": "30096" }, "geometry": { "type": "Point", "coordinates": [ -84.141981066733493, 33.961404165405945 ] } },
{ "type": "Feature", "properties": { "name": "Saigon Cafe", "rating": 4.0, "reviews": 301, "latitude": 34.0892776381258, "longitude": -84.483065629873295, "address": "12195 Hwy 92", "city": "Woodstock", "state": "GA", "postcode": "30188" }, "geometry": { "type": "Point", "coordinates": [ -84.483065629873295, 34.0892776381258 ] } },
{ "type": "Feature", "properties": { "name": "J's Mini Hot Pot", "rating": 4.3, "reviews": 447, "latitude": 33.959867594454863, "longitude": -84.134782686581147, "address": "2174 Pleasant Hill Rd", "city": "Duluth", "state": "GA", "postcode": "30096" }, "geometry": { "type": "Point", "coordinates": [ -84.134782686581147, 33.959867594454863 ] } },
{ "type": "Feature", "properties": { "name": "Super Banh Mi Pho", "rating": 4.1, "reviews": 92, "latitude": 33.921845946359817, "longitude": -84.169765758895437, "address": "1560 Indian Trail Lilburn Rd NW", "city": "Norcross", "state": "GA", "postcode": "30093" }, "geometry": { "type": "Point", "coordinates": [ -84.169765758895437, 33.921845946359817 ] } },
{ "type": "Feature", "properties": { "name": "Bun Mi Vietnamese Grill", "rating": 4.4, "reviews": 186, "latitude": 33.787805851976515, "longitude": -84.3821312, "address": "1197 Peachtree St NE", "city": "Atlanta", "state": "GA", "postcode": "30361" }, "geometry": { "type": "Point", "coordinates": [ -84.382131199999989, 33.787805851976515 ] } },
{ "type": "Feature", "properties": { "name": "Inchin's Bamboo Garden", "rating": 2.6, "reviews": 185, "latitude": 34.051336, "longitude": -84.224584, "address": "11105 State Bridge Rd", "city": "Alpharetta", "state": "GA", "postcode": "30022" }, "geometry": { "type": "Point", "coordinates": [ -84.224584, 34.051336 ] } },
{ "type": "Feature", "properties": { "name": "Banh Mi 135", "rating": 4.3, "reviews": 66, "latitude": 33.9468282, "longitude": -84.1240062, "address": "1630 Pleasant Hill Rd", "city": "Duluth", "state": "GA", "postcode": "30096" }, "geometry": { "type": "Point", "coordinates": [ -84.1240062, 33.9468282 ] } },
{ "type": "Feature", "properties": { "name": "Fuji Express", "rating": 3.7, "reviews": 78, "latitude": 33.504008429550403, "longitude": -84.235144928097696, "address": "1465 Hudson Bridge Rd", "city": "Stockbridge", "state": "GA", "postcode": "30281" }, "geometry": { "type": "Point", "coordinates": [ -84.235144928097696, 33.504008429550403 ] } },
{ "type": "Feature", "properties": { "name": "Caffe Antico", "rating": 3.4, "reviews": 88, "latitude": 33.7859629, "longitude": -84.4066406, "address": "1147 Hemphill Ave NW", "city": "Atlanta", "state": "GA", "postcode": "30318" }, "geometry": { "type": "Point", "coordinates": [ -84.4066406, 33.7859629 ] } },
{ "type": "Feature", "properties": { "name": "Lov'n It Live", "rating": 4.1, "reviews": 157, "latitude": 33.67887, "longitude": -84.44182, "address": "2796 E Point St", "city": "East Point", "state": "GA", "postcode": "30344" }, "geometry": { "type": "Point", "coordinates": [ -84.44182, 33.67887 ] } },
{ "type": "Feature", "properties": { "name": "Hmart", "rating": 3.5, "reviews": 110, "latitude": 33.58248, "longitude": -84.41269, "address": "6335 Highway 85", "city": "Riverdale", "state": "GA", "postcode": "30274" }, "geometry": { "type": "Point", "coordinates": [ -84.41269, 33.58248 ] } },
{ "type": "Feature", "properties": { "name": "C'est La Vie Bakery & Cafe", "rating": 3.7, "reviews": 51, "latitude": 34.016435873502829, "longitude": -84.192339884542633, "address": "9700 Medlock Bridge Rd", "city": "Duluth", "state": "GA", "postcode": "30097" }, "geometry": { "type": "Point", "coordinates": [ -84.192339884542633, 34.016435873502829 ] } },
{ "type": "Feature", "properties": { "name": "So Ba", "rating": 3.7, "reviews": 398, "latitude": 33.73939, "longitude": -84.34564, "address": "560 Gresham Ave SE", "city": "Atlanta", "state": "GA", "postcode": "30316" }, "geometry": { "type": "Point", "coordinates": [ -84.34564, 33.73939 ] } },
{ "type": "Feature", "properties": { "name": "Bismillah Cafe ", "rating": 4.5, "reviews": 399, "latitude": 33.86081757616418, "longitude": -84.309425669523662, "address": "4004 Buford Hwy NE", "city": "Atlanta", "state": "GA", "postcode": "30345" }, "geometry": { "type": "Point", "coordinates": [ -84.309425669523662, 33.86081757616418 ] } },
{ "type": "Feature", "properties": { "name": "Good Kitchen+Market", "rating": 4.5, "reviews": 300, "latitude": 33.966138, "longitude": -84.548786, "address": "116 Margaret Ave", "city": "Marietta", "state": "GA", "postcode": "30060" }, "geometry": { "type": "Point", "coordinates": [ -84.548786, 33.966138 ] } },
{ "type": "Feature", "properties": { "name": "J's Mini Hotpot Deluxe", "rating": 3.9, "reviews": 411, "latitude": 33.8847048, "longitude": -84.2879274, "address": "4897 Buford Hwy", "city": "Atlanta", "state": "GA", "postcode": "30341" }, "geometry": { "type": "Point", "coordinates": [ -84.2879274, 33.8847048 ] } },
{ "type": "Feature", "properties": { "name": "Thanh Thanh Restaurant", "rating": 3.7, "reviews": 37, "latitude": 33.633302, "longitude": -84.357901, "address": "4446 Jonesboro Rd", "city": "Forest Park", "state": "GA", "postcode": "30297" }, "geometry": { "type": "Point", "coordinates": [ -84.357901, 33.633302 ] } },
{ "type": "Feature", "properties": { "name": "Harmony Vegetarian Restaurant", "rating": 4.2, "reviews": 404, "latitude": 33.884632, "longitude": -84.287716, "address": "4897 Buford Hwy", "city": "Atlanta", "state": "GA", "postcode": "30341" }, "geometry": { "type": "Point", "coordinates": [ -84.287716, 33.884632 ] } },
{ "type": "Feature", "properties": { "name": "Kenny's Cafe", "rating": 4.1, "reviews": 46, "latitude": 33.6557441, "longitude": -84.4020289, "address": "407 N Central Ave", "city": "Hapeville", "state": "GA", "postcode": "30354" }, "geometry": { "type": "Point", "coordinates": [ -84.4020289, 33.6557441 ] } },
{ "type": "Feature", "properties": { "name": "Anh's Kitchen", "rating": 3.8, "reviews": 283, "latitude": 33.777992950174003, "longitude": -84.383947302198095, "address": "855 Peachtree St NE", "city": "Atlanta", "state": "GA", "postcode": "30308" }, "geometry": { "type": "Point", "coordinates": [ -84.383947302198095, 33.777992950174003 ] } },
{ "type": "Feature", "properties": { "name": "Emory University Hospital Cafeteria", "rating": 2.1, "reviews": 13, "latitude": 33.792324, "longitude": -84.321861, "address": "1364 Clifton Rd NE", "city": "Atlanta", "state": "GA", "postcode": "30322" }, "geometry": { "type": "Point", "coordinates": [ -84.321861, 33.792324 ] } },
{ "type": "Feature", "properties": { "name": "First Watch", "rating": 3.9, "reviews": 82, "latitude": 33.93311, "longitude": -84.33863, "address": "4718 Ashford Dunwoody Rd", "city": "Atlanta", "state": "GA", "postcode": "30338" }, "geometry": { "type": "Point", "coordinates": [ -84.33863, 33.93311 ] } },
{ "type": "Feature", "properties": { "name": "Noodle Cafe", "rating": 3.6, "reviews": 73, "latitude": 33.760776, "longitude": -84.386445, "address": "233 Peachtree St NE", "city": "Atlanta", "state": "GA", "postcode": "30303" }, "geometry": { "type": "Point", "coordinates": [ -84.386445, 33.760776 ] } },
{ "type": "Feature", "properties": { "name": "Lemon Grass Thai Restaurant", "rating": 4.2, "reviews": 375, "latitude": 33.968572050446397, "longitude": -84.491848310906306, "address": "2145 Roswell Rd", "city": "Marietta", "state": "GA", "postcode": "30062" }, "geometry": { "type": "Point", "coordinates": [ -84.491848310906306, 33.968572050446397 ] } },
{ "type": "Feature", "properties": { "name": "Wich Tea", "rating": 4.7, "reviews": 28, "latitude": 33.95304, "longitude": -84.13982, "address": "3350 Steve Reynolds Blvd", "city": "Duluth", "state": "GA", "postcode": "30096" }, "geometry": { "type": "Point", "coordinates": [ -84.13982, 33.95304 ] } },
{ "type": "Feature", "properties": { "name": "Chinatown Food Court", "rating": 4.3, "reviews": 55, "latitude": 33.890652477947498, "longitude": -84.299758672714205, "address": "5379 New Peachtree Rd", "city": "Chamblee", "state": "GA", "postcode": "30341" }, "geometry": { "type": "Point", "coordinates": [ -84.299758672714205, 33.890652477947498 ] } },
{ "type": "Feature", "properties": { "name": "Com Ga Houston", "rating": 3.8, "reviews": 73, "latitude": 33.953115897588333, "longitude": -84.139869827578721, "address": "3350 Steve Reynolds Blvd", "city": "Duluth", "state": "GA", "postcode": "30096" }, "geometry": { "type": "Point", "coordinates": [ -84.139869827578721, 33.953115897588333 ] } },
{ "type": "Feature", "properties": { "name": "Asian Chao", "rating": 1.8, "reviews": 91, "latitude": 33.642233032043798, "longitude": -84.439878397246702, "address": "Hartsfield/Jackson International Airport", "city": "Atlanta", "state": "GA", "postcode": "30320" }, "geometry": { "type": "Point", "coordinates": [ -84.439878397246702, 33.642233032043798 ] } },
{ "type": "Feature", "properties": { "name": "Humble House", "rating": 4.2, "reviews": 78, "latitude": 33.963984443168442, "longitude": -84.134767631809083, "address": "2300 Pleasant Hill Rd", "city": "Duluth", "state": "GA", "postcode": "30096" }, "geometry": { "type": "Point", "coordinates": [ -84.134767631809083, 33.963984443168442 ] } },
{ "type": "Feature", "properties": { "name": "Under the Cork Tree", "rating": 4.1, "reviews": 364, "latitude": 33.9081197, "longitude": -84.3804067, "address": "5600 Roswell Rd NE", "city": "Sandy Springs", "state": "GA", "postcode": "30342" }, "geometry": { "type": "Point", "coordinates": [ -84.3804067, 33.9081197 ] } },
{ "type": "Feature", "properties": { "name": "Todahmgol", "rating": 3.5, "reviews": 69, "latitude": 33.96596, "longitude": -84.14124, "address": "2442 Pleasant Hill Rd", "city": "Duluth", "state": "GA", "postcode": "30096" }, "geometry": { "type": "Point", "coordinates": [ -84.14124, 33.96596 ] } },
{ "type": "Feature", "properties": { "name": "Queen Tea", "rating": 4.3, "reviews": 202, "latitude": 34.011156119763392, "longitude": -84.562735104829002, "address": "425 Ernest W Barrett Pkwy NW", "city": "Kennesaw", "state": "GA", "postcode": "30144" }, "geometry": { "type": "Point", "coordinates": [ -84.562735104829002, 34.011156119763392 ] } },
{ "type": "Feature", "properties": { "name": "Thai Squared", "rating": 3.8, "reviews": 308, "latitude": 34.088183459747903, "longitude": -84.266132600208294, "address": "5530 Windward Pkwy", "city": "Alpharetta", "state": "GA", "postcode": "30004" }, "geometry": { "type": "Point", "coordinates": [ -84.266132600208294, 34.088183459747903 ] } },
{ "type": "Feature", "properties": { "name": "China King Restaurant", "rating": 3.5, "reviews": 78, "latitude": 33.721896624145614, "longitude": -84.348036, "address": "1162 Moreland Ave SE", "city": "Atlanta", "state": "GA", "postcode": "30316" }, "geometry": { "type": "Point", "coordinates": [ -84.348036, 33.721896624145614 ] } },
{ "type": "Feature", "properties": { "name": "Magic Wok Chinese Food Restaurant", "rating": 3.3, "reviews": 20, "latitude": 33.789135, "longitude": -84.232192, "address": "4857 Memorial Dr", "city": "Stone Mountain", "state": "GA", "postcode": "30083" }, "geometry": { "type": "Point", "coordinates": [ -84.232192, 33.789135 ] } },
{ "type": "Feature", "properties": { "name": "Xela Pan Cafe", "rating": 4.4, "reviews": 60, "latitude": 33.896537780761697, "longitude": -84.282432556152301, "address": "5268 Buford Hwy NE", "city": "Atlanta", "state": "GA", "postcode": "30340" }, "geometry": { "type": "Point", "coordinates": [ -84.282432556152301, 33.896537780761697 ] } },
{ "type": "Feature", "properties": { "name": "Bo Bo Garden", "rating": 3.8, "reviews": 505, "latitude": 33.893725007049497, "longitude": -84.283182621002197, "address": "5181 Buford Hwy NE", "city": "Doraville", "state": "GA", "postcode": "30340" }, "geometry": { "type": "Point", "coordinates": [ -84.283182621002197, 33.893725007049497 ] } },
{ "type": "Feature", "properties": { "name": "The Studio Cafe", "rating": 4.2, "reviews": 207, "latitude": 33.474933841382096, "longitude": -84.510856588854494, "address": "461 Sandy Creek Rd", "city": "Fayetteville", "state": "GA", "postcode": "30214" }, "geometry": { "type": "Point", "coordinates": [ -84.510856588854494, 33.474933841382096 ] } },
{ "type": "Feature", "properties": { "name": "Sandy Springs Cafe", "rating": 3.3, "reviews": 10, "latitude": 33.9202499, "longitude": -84.3779831, "address": "6065 Roswell Rd NE", "city": "Atlanta", "state": "GA", "postcode": "30328" }, "geometry": { "type": "Point", "coordinates": [ -84.3779831, 33.9202499 ] } },
{ "type": "Feature", "properties": { "name": "Cafe Crepes Square", "rating": 4.2, "reviews": 200, "latitude": 34.029308, "longitude": -84.0438, "address": "80 Horizon Dr", "city": "Suwanee", "state": "GA", "postcode": "30024" }, "geometry": { "type": "Point", "coordinates": [ -84.0438, 34.029308 ] } },
{ "type": "Feature", "properties": { "name": "Saigon Cafe - Cumberland", "rating": 3.5, "reviews": 214, "latitude": 33.88696338951376, "longitude": -84.475551915291931, "address": "2700 Cobb Pkwy SE", "city": "Smyrna", "state": "GA", "postcode": "30080" }, "geometry": { "type": "Point", "coordinates": [ -84.475551915291931, 33.88696338951376 ] } },
{ "type": "Feature", "properties": { "name": "China Kitchen", "rating": 3.9, "reviews": 109, "latitude": 33.8907484, "longitude": -84.3001492, "address": "5385 New Peachtree Rd", "city": "Chamblee", "state": "GA", "postcode": "30341" }, "geometry": { "type": "Point", "coordinates": [ -84.3001492, 33.8907484 ] } },
{ "type": "Feature", "properties": { "name": "Loving Hut", "rating": 4.1, "reviews": 321, "latitude": 33.968976, "longitude": -84.258356, "address": "6385 Spalding Dr", "city": "Norcross", "state": "GA", "postcode": "30092" }, "geometry": { "type": "Point", "coordinates": [ -84.258356, 33.968976 ] } },
{ "type": "Feature", "properties": { "name": "Hong Kong Cafe", "rating": 4.1, "reviews": 100, "latitude": 34.046444, "longitude": -84.177172, "address": "10820 Abbotts Bridge Rd", "city": "Johns Creek", "state": "GA", "postcode": "30097" }, "geometry": { "type": "Point", "coordinates": [ -84.177172, 34.046444 ] } },
{ "type": "Feature", "properties": { "name": "NM Cafe", "rating": 3.6, "reviews": 47, "latitude": 33.846218594594276, "longitude": -84.363783569139372, "address": "3393 Peachtree Rd NE", "city": "Atlanta", "state": "GA", "postcode": "30326" }, "geometry": { "type": "Point", "coordinates": [ -84.363783569139372, 33.846218594594276 ] } },
{ "type": "Feature", "properties": { "name": "Nam Phuong", "rating": 3.3, "reviews": 418, "latitude": 33.910085275749303, "longitude": -84.204396896958897, "address": "5495 Jimmy Carter Blvd", "city": "Norcross", "state": "GA", "postcode": "30093" }, "geometry": { "type": "Point", "coordinates": [ -84.204396896958897, 33.910085275749303 ] } },
{ "type": "Feature", "properties": { "name": "Dua Vietnamese Noodle Soup", "rating": 3.7, "reviews": 149, "latitude": 33.66137, "longitude": -84.41421, "address": "760 S Central Ave", "city": "Hapeville", "state": "GA", "postcode": "30354" }, "geometry": { "type": "Point", "coordinates": [ -84.41421, 33.66137 ] } },
{ "type": "Feature", "properties": { "name": "575 Bistro", "rating": 4.3, "reviews": 366, "latitude": 34.008832401341685, "longitude": -84.576408096721366, "address": "840 Ernest W Barrett Pkwy NW", "city": "Kennesaw", "state": "GA", "postcode": "30144" }, "geometry": { "type": "Point", "coordinates": [ -84.576408096721366, 34.008832401341685 ] } },
{ "type": "Feature", "properties": { "name": "SriThai Thai kitchen & sushi bar - Snellville", "rating": 3.6, "reviews": 331, "latitude": 33.858239787887896, "longitude": -84.019326979206397, "address": "2218 Main St E", "city": "Snellville", "state": "GA", "postcode": "30078" }, "geometry": { "type": "Point", "coordinates": [ -84.019326979206397, 33.858239787887896 ] } },
{ "type": "Feature", "properties": { "name": "Com Mai Vietnamese Cuisine", "rating": 3.6, "reviews": 96, "latitude": 33.9396927630739, "longitude": -84.123496250752893, "address": "1455 Pleasant Hill Rd", "city": "Lawrenceville", "state": "GA", "postcode": "30044" }, "geometry": { "type": "Point", "coordinates": [ -84.123496250752893, 33.9396927630739 ] } },
{ "type": "Feature", "properties": { "name": "Saigon Tofu", "rating": 3.5, "reviews": 54, "latitude": 33.888217197361698, "longitude": -84.288920871913405, "address": "5000 Buford Hwy", "city": "Chamblee", "state": "GA", "postcode": "30341" }, "geometry": { "type": "Point", "coordinates": [ -84.288920871913405, 33.888217197361698 ] } },
{ "type": "Feature", "properties": { "name": "Pho Bac", "rating": 4.0, "reviews": 481, "latitude": 33.884783914850402, "longitude": -84.288011795314603, "address": "4897 Buford Hwy NE", "city": "Chamblee", "state": "GA", "postcode": "30341" }, "geometry": { "type": "Point", "coordinates": [ -84.288011795314603, 33.884783914850402 ] } },
{ "type": "Feature", "properties": { "name": "Pure Pho and Grill", "rating": 3.9, "reviews": 152, "latitude": 34.152544, "longitude": -84.176527, "address": "410 Peachtree Pkwy", "city": "Cumming", "state": "GA", "postcode": "30041" }, "geometry": { "type": "Point", "coordinates": [ -84.176527, 34.152544 ] } },
{ "type": "Feature", "properties": { "name": "H Mart - Duluth", "rating": 3.9, "reviews": 276, "latitude": 33.969674, "longitude": -84.142958, "address": "2550 Pleasant Hill Rd.", "city": "Duluth", "state": "GA", "postcode": "30096" }, "geometry": { "type": "Point", "coordinates": [ -84.142958, 33.969674 ] } },
{ "type": "Feature", "properties": { "name": "Cafe Intermezzo - Midtown", "rating": 3.8, "reviews": 1552, "latitude": 33.783311014109202, "longitude": -84.383556622090197, "address": "1065 Peachtree St NE", "city": "Atlanta", "state": "GA", "postcode": "30309" }, "geometry": { "type": "Point", "coordinates": [ -84.383556622090197, 33.783311014109202 ] } },
{ "type": "Feature", "properties": { "name": "Tin Drum Asian Kitchen -The Collection at Forsyth", "rating": 3.1, "reviews": 143, "latitude": 34.15391, "longitude": -84.17703, "address": "410 Peachtree Pkwy", "city": "Cumming", "state": "GA", "postcode": "30041" }, "geometry": { "type": "Point", "coordinates": [ -84.17703, 34.15391 ] } },
{ "type": "Feature", "properties": { "name": "Chatime", "rating": 3.2, "reviews": 56, "latitude": 33.963533657228503, "longitude": -84.135224757880195, "address": "2300 Pleasant Hill Rd", "city": "Duluth", "state": "GA", "postcode": "30096" }, "geometry": { "type": "Point", "coordinates": [ -84.135224757880195, 33.963533657228503 ] } },
{ "type": "Feature", "properties": { "name": "Hoang Toan Pho", "rating": 3.4, "reviews": 17, "latitude": 33.952244559458698, "longitude": -84.1406133905421, "address": "3865 Venture Dr", "city": "Duluth", "state": "GA", "postcode": "30096" }, "geometry": { "type": "Point", "coordinates": [ -84.1406133905421, 33.952244559458698 ] } },
{ "type": "Feature", "properties": { "name": "North Shallowford Plaza", "rating": 5.0, "reviews": 1, "latitude": 33.9278199, "longitude": -84.31121, "address": "4629 North Shallowford Rd", "city": "Atlanta", "state": "GA", "postcode": "30338" }, "geometry": { "type": "Point", "coordinates": [ -84.31121, 33.9278199 ] } },
{ "type": "Feature", "properties": { "name": "Pho Viet Number one", "rating": 3.5, "reviews": 306, "latitude": 33.884787325327402, "longitude": -84.192606549598693, "address": "4650 Jimmy Carter Blvd", "city": "Norcross", "state": "GA", "postcode": "30093" }, "geometry": { "type": "Point", "coordinates": [ -84.192606549598693, 33.884787325327402 ] } },
{ "type": "Feature", "properties": { "name": "Vincent Bakery Cafe", "rating": 3.9, "reviews": 98, "latitude": 34.047309917969876, "longitude": -84.178990235056744, "address": "10900 Medlock Bridge Rd", "city": "Johns Creek", "state": "GA", "postcode": "30097" }, "geometry": { "type": "Point", "coordinates": [ -84.178990235056744, 34.047309917969876 ] } },
{ "type": "Feature", "properties": { "name": "Thai Norcross", "rating": 4.1, "reviews": 525, "latitude": 33.89669, "longitude": -84.19539, "address": "1200 Rockbridge Rd NW", "city": "Norcross", "state": "GA", "postcode": "30093" }, "geometry": { "type": "Point", "coordinates": [ -84.19539, 33.89669 ] } },
{ "type": "Feature", "properties": { "name": "Tous Les Jours", "rating": 3.8, "reviews": 10, "latitude": 34.044917, "longitude": -84.178084, "address": "10820 Abbott Bridge Rd", "city": "Duluth", "state": "GA", "postcode": "30097" }, "geometry": { "type": "Point", "coordinates": [ -84.178084, 34.044917 ] } },
{ "type": "Feature", "properties": { "name": "Xi'an Gourmet House", "rating": 4.1, "reviews": 136, "latitude": 33.951451800233002, "longitude": -84.140870902985, "address": "3875 Venture Dr", "city": "Duluth", "state": "GA", "postcode": "30096" }, "geometry": { "type": "Point", "coordinates": [ -84.140870902985, 33.951451800233002 ] } },
{ "type": "Feature", "properties": { "name": "Wong Kee BBQ Peking Duck", "rating": 2.8, "reviews": 32, "latitude": 33.9083464, "longitude": -84.2060249, "address": "5495 Jimmy Carter Blvd", "city": "Norcross", "state": "GA", "postcode": "30093" }, "geometry": { "type": "Point", "coordinates": [ -84.2060249, 33.9083464 ] } },
{ "type": "Feature", "properties": { "name": "Super Pho", "rating": 4.1, "reviews": 64, "latitude": 34.082822, "longitude": -84.355275, "address": "12315 Crabapple Rd", "city": "Alpharetta", "state": "GA", "postcode": "30004" }, "geometry": { "type": "Point", "coordinates": [ -84.355275, 34.082822 ] } },
{ "type": "Feature", "properties": { "name": "North Fulton Cafe", "rating": 0.0, "reviews": 0, "latitude": 34.0625496, "longitude": -84.3217316, "address": "2500 Hospital Blvd", "city": "Roswell", "state": "GA", "postcode": "30076" }, "geometry": { "type": "Point", "coordinates": [ -84.3217316, 34.0625496 ] } },
{ "type": "Feature", "properties": { "name": "Panaderia Chapin", "rating": 2.0, "reviews": 1, "latitude": 33.891406, "longitude": -84.285853, "address": "5090 Buford Hwy", "city": "Doraville", "state": "GA", "postcode": "30340" }, "geometry": { "type": "Point", "coordinates": [ -84.285853, 33.891406 ] } },
{ "type": "Feature", "properties": { "name": "Vietvana Pho Noodle House - Avondale", "rating": 3.7, "reviews": 300, "latitude": 33.774652447726602, "longitude": -84.274086547850402, "address": "2831 E College Ave", "city": "Avondale Estates", "state": "GA", "postcode": "30002" }, "geometry": { "type": "Point", "coordinates": [ -84.274086547850402, 33.774652447726602 ] } },
{ "type": "Feature", "properties": { "name": "Tea Leaf & Creamery", "rating": 4.3, "reviews": 102, "latitude": 33.890767966524372, "longitude": -84.284705291437433, "address": "5091 Buford Hwy NE", "city": "Doraville", "state": "GA", "postcode": "30340" }, "geometry": { "type": "Point", "coordinates": [ -84.284705291437433, 33.890767966524372 ] } },
{ "type": "Feature", "properties": { "name": "NAM Kitchen", "rating": 3.6, "reviews": 105, "latitude": 33.925055, "longitude": -84.381781, "address": "6400 Bluestone Rd", "city": "Sandy Springs", "state": "GA", "postcode": "30328" }, "geometry": { "type": "Point", "coordinates": [ -84.381781, 33.925055 ] } },
{ "type": "Feature", "properties": { "name": "Cafe Felice", "rating": 1.0, "reviews": 1, "latitude": 33.90396, "longitude": -84.47975, "address": "1995 N Park Pl", "city": "Atlanta", "state": "GA", "postcode": "30339" }, "geometry": { "type": "Point", "coordinates": [ -84.47975, 33.90396 ] } },
{ "type": "Feature", "properties": { "name": "I Luv Pho", "rating": 3.8, "reviews": 70, "latitude": 34.033727769539503, "longitude": -84.3435291, "address": "627 Holcomb Bridge Rd", "city": "Roswell", "state": "GA", "postcode": "30076" }, "geometry": { "type": "Point", "coordinates": [ -84.3435291, 34.033727769539503 ] } },
{ "type": "Feature", "properties": { "name": "Cafe At Pharr", "rating": 3.9, "reviews": 111, "latitude": 33.839910799735499, "longitude": -84.376964660661102, "address": "3145 Peachtree Rd", "city": "Atlanta", "state": "GA", "postcode": "30305" }, "geometry": { "type": "Point", "coordinates": [ -84.376964660661102, 33.839910799735499 ] } },
{ "type": "Feature", "properties": { "name": "Moi Boba Bowls & Rolls", "rating": 4.2, "reviews": 125, "latitude": 34.020731, "longitude": -84.192427, "address": "5725 State Bridge Rd", "city": "Johns Creek", "state": "GA", "postcode": "30022" }, "geometry": { "type": "Point", "coordinates": [ -84.192427, 34.020731 ] } },
{ "type": "Feature", "properties": { "name": "Lucky China", "rating": 3.3, "reviews": 87, "latitude": 34.041911806935502, "longitude": -84.601721780950896, "address": "3600 Cherokee St NW", "city": "Kennesaw", "state": "GA", "postcode": "30144" }, "geometry": { "type": "Point", "coordinates": [ -84.601721780950896, 34.041911806935502 ] } },
{ "type": "Feature", "properties": { "name": "Kung Fu Tea", "rating": 4.0, "reviews": 487, "latitude": 33.896772109040498, "longitude": -84.282196392336388, "address": "5280-A Buford Hwy", "city": "Doraville", "state": "GA", "postcode": "30340" }, "geometry": { "type": "Point", "coordinates": [ -84.282196392336388, 33.896772109040498 ] } },
{ "type": "Feature", "properties": { "name": "China Cafe", "rating": 2.1, "reviews": 7, "latitude": 33.5451302, "longitude": -84.4025336, "address": "373 Hwy 138 SW", "city": "Riverdale", "state": "GA", "postcode": "30274" }, "geometry": { "type": "Point", "coordinates": [ -84.4025336, 33.5451302 ] } },
{ "type": "Feature", "properties": { "name": "Iron Age Korean Steak House", "rating": 3.5, "reviews": 1454, "latitude": 33.953934564233698, "longitude": -84.133828286716593, "address": "2131 Pleasant Hill Rd", "city": "Duluth", "state": "GA", "postcode": "30096" }, "geometry": { "type": "Point", "coordinates": [ -84.133828286716593, 33.953934564233698 ] } },
{ "type": "Feature", "properties": { "name": "China Cafe 7", "rating": 3.5, "reviews": 49, "latitude": 33.60662, "longitude": -84.43492, "address": "5436 Riverdale Rd", "city": "Atlanta", "state": "GA", "postcode": "30349" }, "geometry": { "type": "Point", "coordinates": [ -84.43492, 33.60662 ] } },
{ "type": "Feature", "properties": { "name": "Cafe At Pharr", "rating": 3.6, "reviews": 45, "latitude": 33.865785, "longitude": -84.46692, "address": "4300 Paces Ferry Rd SE", "city": "Atlanta", "state": "GA", "postcode": "30339" }, "geometry": { "type": "Point", "coordinates": [ -84.46692, 33.865785 ] } },
{ "type": "Feature", "properties": { "name": "Sweet Octopus Atlanta", "rating": 4.1, "reviews": 206, "latitude": 34.003213, "longitude": -84.14513, "address": "3559 West Lawrenceville St", "city": "Duluth", "state": "GA", "postcode": "30096" }, "geometry": { "type": "Point", "coordinates": [ -84.14513, 34.003213 ] } },
{ "type": "Feature", "properties": { "name": "The 5 Spot Cafe", "rating": 3.9, "reviews": 247, "latitude": 34.147923, "longitude": -83.9631615, "address": "940 Gainesville Hwy", "city": "Buford", "state": "GA", "postcode": "30518" }, "geometry": { "type": "Point", "coordinates": [ -83.9631615, 34.147923 ] } },
{ "type": "Feature", "properties": { "name": "Another Broken Egg Cafe", "rating": 3.8, "reviews": 644, "latitude": 33.93334, "longitude": -84.33599, "address": "4745 Ashford Dunwoody Rd", "city": "Dunwoody", "state": "GA", "postcode": "30338" }, "geometry": { "type": "Point", "coordinates": [ -84.33599, 33.93334 ] } },
{ "type": "Feature", "properties": { "name": "Great Sichuan", "rating": 4.3, "reviews": 162, "latitude": 34.034762784122371, "longitude": -84.184354014016435, "address": "10475 Medlock Bridge Rd", "city": "Johns Creek", "state": "GA", "postcode": "30097" }, "geometry": { "type": "Point", "coordinates": [ -84.184354014016435, 34.034762784122371 ] } },
{ "type": "Feature", "properties": { "name": "Legend Cafe", "rating": 3.3, "reviews": 46, "latitude": 33.615982, "longitude": -84.472252, "address": "5110 Old National Hwy", "city": "College Park", "state": "GA", "postcode": "30349" }, "geometry": { "type": "Point", "coordinates": [ -84.472252, 33.615982 ] } },
{ "type": "Feature", "properties": { "name": "Sushi China Cafe", "rating": 3.4, "reviews": 136, "latitude": 33.5719985, "longitude": -84.339374, "address": "1500 Mt Zion Rd", "city": "Morrow", "state": "GA", "postcode": "30260" }, "geometry": { "type": "Point", "coordinates": [ -84.339374, 33.5719985 ] } },
{ "type": "Feature", "properties": { "name": "China Cafe", "rating": 3.7, "reviews": 32, "latitude": 33.50339, "longitude": -84.23768, "address": "1481 Hudson Bridge Rd", "city": "Stockbridge", "state": "GA", "postcode": "30281" }, "geometry": { "type": "Point", "coordinates": [ -84.23768, 33.50339 ] } },
{ "type": "Feature", "properties": { "name": "The Hub at Peachtree Center", "rating": 2.9, "reviews": 83, "latitude": 33.7602091, "longitude": -84.3870153, "address": "231 Peachtree St NE", "city": "Atlanta", "state": "GA", "postcode": "30303" }, "geometry": { "type": "Point", "coordinates": [ -84.3870153, 33.7602091 ] } },
{ "type": "Feature", "properties": { "name": "No 1 China", "rating": 3.3, "reviews": 58, "latitude": 33.876494, "longitude": -84.532916, "address": "3240 S Cobb Dr SE", "city": "Smyrna", "state": "GA", "postcode": "30080" }, "geometry": { "type": "Point", "coordinates": [ -84.532916, 33.876494 ] } },
{ "type": "Feature", "properties": { "name": "Bawarchi Biryanis - Atlanta", "rating": 3.4, "reviews": 402, "latitude": 33.9358472856958, "longitude": -84.377821683883695, "address": "6631 Roswell Rd NE", "city": "Atlanta", "state": "GA", "postcode": "30328" }, "geometry": { "type": "Point", "coordinates": [ -84.377821683883695, 33.9358472856958 ] } },
{ "type": "Feature", "properties": { "name": "Simply Thai Cuisine", "rating": 3.6, "reviews": 211, "latitude": 33.927935510286012, "longitude": -84.311516015204631, "address": "4639 N Shallowford Rd", "city": "Atlanta", "state": "GA", "postcode": "30338" }, "geometry": { "type": "Point", "coordinates": [ -84.311516015204631, 33.927935510286012 ] } },
{ "type": "Feature", "properties": { "name": "Canton Cooks", "rating": 3.6, "reviews": 476, "latitude": 33.9185733068039, "longitude": -84.381880597375499, "address": "5984 Roswell Rd NE", "city": "Atlanta", "state": "GA", "postcode": "30328" }, "geometry": { "type": "Point", "coordinates": [ -84.381880597375499, 33.9185733068039 ] } },
{ "type": "Feature", "properties": { "name": "VN Pho", "rating": 4.0, "reviews": 293, "latitude": 33.581604, "longitude": -84.340576, "address": "6363 Jonesboro Rd", "city": "Morrow", "state": "GA", "postcode": "30260" }, "geometry": { "type": "Point", "coordinates": [ -84.340576, 33.581604 ] } },
{ "type": "Feature", "properties": { "name": "Yummy Garden", "rating": 3.3, "reviews": 33, "latitude": 33.963555903362298, "longitude": -84.135203300125497, "address": "2300 Pleasant Hill Rd", "city": "Duluth", "state": "GA", "postcode": "30096" }, "geometry": { "type": "Point", "coordinates": [ -84.135203300125497, 33.963555903362298 ] } },
{ "type": "Feature", "properties": { "name": "Chopsticks China Bistro & Sushi Bar", "rating": 3.6, "reviews": 208, "latitude": 34.15347, "longitude": -84.17326, "address": "405 Peachtree Pkwy", "city": "Cumming", "state": "GA", "postcode": "30041" }, "geometry": { "type": "Point", "coordinates": [ -84.17326, 34.15347 ] } },
{ "type": "Feature", "properties": { "name": "Yan's Cafe", "rating": 4.2, "reviews": 188, "latitude": 34.095835, "longitude": -84.275913, "address": "12890 GA-9", "city": "Alpharetta", "state": "GA", "postcode": "30004" }, "geometry": { "type": "Point", "coordinates": [ -84.275913, 34.095835 ] } },
{ "type": "Feature", "properties": { "name": "Ming's Bar B Que", "rating": 3.5, "reviews": 315, "latitude": 33.893089985297799, "longitude": -84.286122532638998, "address": "5150 Buford Hwy NE", "city": "Doraville", "state": "GA", "postcode": "30340" }, "geometry": { "type": "Point", "coordinates": [ -84.286122532638998, 33.893089985297799 ] } },
{ "type": "Feature", "properties": { "name": "Ping's Place", "rating": 3.9, "reviews": 110, "latitude": 33.963665594528933, "longitude": -84.135028686892667, "address": "2300 Pleasant Hill Rd", "city": "Duluth", "state": "GA", "postcode": "30096" }, "geometry": { "type": "Point", "coordinates": [ -84.135028686892667, 33.963665594528933 ] } },
{ "type": "Feature", "properties": { "name": "First Watch", "rating": 3.5, "reviews": 516, "latitude": 33.849798425705814, "longitude": -84.492937186520791, "address": "1675 Cumberland Pkwy SE", "city": "Smyrna", "state": "GA", "postcode": "30080" }, "geometry": { "type": "Point", "coordinates": [ -84.492937186520791, 33.849798425705814 ] } },
{ "type": "Feature", "properties": { "name": "VN Tofu", "rating": 3.2, "reviews": 182, "latitude": 33.909078, "longitude": -84.204148, "address": "5495 Jimmy Carter Blvd", "city": "Norcross", "state": "GA", "postcode": "30093" }, "geometry": { "type": "Point", "coordinates": [ -84.204148, 33.909078 ] } },
{ "type": "Feature", "properties": { "name": "Cafe Amico", "rating": 4.4, "reviews": 159, "latitude": 34.05567, "longitude": -84.06305, "address": "320 Town Center Ave", "city": "Suwanee", "state": "GA", "postcode": "30024" }, "geometry": { "type": "Point", "coordinates": [ -84.06305, 34.05567 ] } },
{ "type": "Feature", "properties": { "name": "Tous Les Jours", "rating": 3.5, "reviews": 14, "latitude": 34.0220532, "longitude": -84.044520747463466, "address": "2700 Lawrenceville Suwanee Rd", "city": "Suwanee", "state": "GA", "postcode": "30024" }, "geometry": { "type": "Point", "coordinates": [ -84.044520747463466, 34.0220532 ] } },
{ "type": "Feature", "properties": { "name": "Banh Mi Café", "rating": 4.1, "reviews": 394, "latitude": 33.960679, "longitude": -84.132146, "address": "3512 Satellite Blvd", "city": "Duluth", "state": "GA", "postcode": "30096" }, "geometry": { "type": "Point", "coordinates": [ -84.132146, 33.960679 ] } },
{ "type": "Feature", "properties": { "name": "CHINA HOUSE", "rating": 2.2, "reviews": 60, "latitude": 34.090173, "longitude": -84.585482, "address": "6199 Ga-92", "city": "Acworth", "state": "GA", "postcode": "30102" }, "geometry": { "type": "Point", "coordinates": [ -84.585482, 34.090173 ] } },
{ "type": "Feature", "properties": { "name": "A-Hyang", "rating": 3.8, "reviews": 190, "latitude": 33.9580688476562, "longitude": -84.140518188476605, "address": "3230 Steve Reynolds Blvd", "city": "Duluth", "state": "GA", "postcode": "30096" }, "geometry": { "type": "Point", "coordinates": [ -84.140518188476605, 33.9580688476562 ] } },
{ "type": "Feature", "properties": { "name": "Pearl Lian Restaurant & Bar", "rating": 3.4, "reviews": 221, "latitude": 34.063822632353201, "longitude": -84.171778553385906, "address": "11600 Medlock Bridge Rd", "city": "Duluth", "state": "GA", "postcode": "30097" }, "geometry": { "type": "Point", "coordinates": [ -84.171778553385906, 34.063822632353201 ] } },
{ "type": "Feature", "properties": { "name": "China King", "rating": 2.5, "reviews": 43, "latitude": 33.5629621893167, "longitude": -84.324485287070303, "address": "2031 Mount Zion Rd", "city": "Morrow", "state": "GA", "postcode": "30260" }, "geometry": { "type": "Point", "coordinates": [ -84.324485287070303, 33.5629621893167 ] } },
{ "type": "Feature", "properties": { "name": "Lin's Chinese Cuisine At Windward", "rating": 3.2, "reviews": 144, "latitude": 34.09593333139, "longitude": -84.279050012580896, "address": "12850 Hwy 9 N", "city": "Alpharetta", "state": "GA", "postcode": "30004" }, "geometry": { "type": "Point", "coordinates": [ -84.279050012580896, 34.09593333139 ] } },
{ "type": "Feature", "properties": { "name": "Cafe Mozart Bakery", "rating": 3.4, "reviews": 134, "latitude": 33.954446598269499, "longitude": -84.132571503496493, "address": "2131 Pleasant Hill Rd", "city": "Duluth", "state": "GA", "postcode": "30096" }, "geometry": { "type": "Point", "coordinates": [ -84.132571503496493, 33.954446598269499 ] } },
{ "type": "Feature", "properties": { "name": "Pho House", "rating": 3.6, "reviews": 278, "latitude": 33.957306219889901, "longitude": -84.135102219879599, "address": "3606 Satellite Blvd", "city": "Duluth", "state": "GA", "postcode": "30096" }, "geometry": { "type": "Point", "coordinates": [ -84.135102219879599, 33.957306219889901 ] } },
{ "type": "Feature", "properties": { "name": "Buffalo's", "rating": 2.5, "reviews": 59, "latitude": 33.91293445, "longitude": -83.97080729, "address": "1365 Grayson Hwy", "city": "Lawrenceville", "state": "GA", "postcode": "30045" }, "geometry": { "type": "Point", "coordinates": [ -83.97080729, 33.91293445 ] } },
{ "type": "Feature", "properties": { "name": "Pho 24", "rating": 3.2, "reviews": 162, "latitude": 33.919321772580801, "longitude": -84.379173517227201, "address": "6050 Roswell Rd", "city": "Sandy Springs", "state": "GA", "postcode": "30328" }, "geometry": { "type": "Point", "coordinates": [ -84.379173517227201, 33.919321772580801 ] } },
{ "type": "Feature", "properties": { "name": "First Watch", "rating": 3.8, "reviews": 478, "latitude": 34.04711, "longitude": -84.600498640261037, "address": "3815 Cherokee St NW", "city": "Kennesaw", "state": "GA", "postcode": "30144" }, "geometry": { "type": "Point", "coordinates": [ -84.600498640261037, 34.04711 ] } },
{ "type": "Feature", "properties": { "name": "Happy Panda", "rating": 2.5, "reviews": 65, "latitude": 34.062168790913866, "longitude": -84.591148908186526, "address": "4430 Wade Green Rd NW", "city": "Kennesaw", "state": "GA", "postcode": "30144" }, "geometry": { "type": "Point", "coordinates": [ -84.591148908186526, 34.062168790913866 ] } },
{ "type": "Feature", "properties": { "name": "Sunshine Chinese Thai", "rating": 4.2, "reviews": 123, "latitude": 34.06274, "longitude": -84.07619, "address": "525 Peachtree Industrial Blvd", "city": "Suwanee", "state": "GA", "postcode": "30024" }, "geometry": { "type": "Point", "coordinates": [ -84.07619, 34.06274 ] } },
{ "type": "Feature", "properties": { "name": "Green Basil", "rating": 3.6, "reviews": 166, "latitude": 34.0266, "longitude": -84.04279, "address": "2855 Lawrenceville Suwanee Rd", "city": "Suwanee", "state": "GA", "postcode": "30024" }, "geometry": { "type": "Point", "coordinates": [ -84.04279, 34.0266 ] } },
{ "type": "Feature", "properties": { "name": "Pho Bac", "rating": 3.7, "reviews": 53, "latitude": 33.961831030425813, "longitude": -84.134739998701775, "address": "2180 Pleasant Hill Rd", "city": "Duluth", "state": "GA", "postcode": "30096" }, "geometry": { "type": "Point", "coordinates": [ -84.134739998701775, 33.961831030425813 ] } },
{ "type": "Feature", "properties": { "name": "Pho 24", "rating": 3.3, "reviews": 143, "latitude": 34.060976719044, "longitude": -83.990261341622102, "address": "1825 Mall Of Georgia Blvd", "city": "Buford", "state": "GA", "postcode": "30519" }, "geometry": { "type": "Point", "coordinates": [ -83.990261341622102, 34.060976719044 ] } },
{ "type": "Feature", "properties": { "name": "Hansel & Gretel Bakery Cafe", "rating": 3.6, "reviews": 24, "latitude": 34.046299783436353, "longitude": -84.17706, "address": "10820 Abbotts Bridge Rd", "city": "Johns Creek", "state": "GA", "postcode": "30097" }, "geometry": { "type": "Point", "coordinates": [ -84.17706, 34.046299783436353 ] } },
{ "type": "Feature", "properties": { "name": "Lucky Dragon Restaurant", "rating": 3.4, "reviews": 65, "latitude": 33.8621215820312, "longitude": -84.597480773925795, "address": "3750 Austell Rd SW", "city": "Marietta", "state": "GA", "postcode": "30008" }, "geometry": { "type": "Point", "coordinates": [ -84.597480773925795, 33.8621215820312 ] } },
{ "type": "Feature", "properties": { "name": "Fresh Healthy Cafe", "rating": 3.4, "reviews": 104, "latitude": 33.642717, "longitude": -84.4325, "address": "6000 N Terminal Pkwy", "city": "Atlanta", "state": "GA", "postcode": "30320" }, "geometry": { "type": "Point", "coordinates": [ -84.4325, 33.642717 ] } },
{ "type": "Feature", "properties": { "name": "Sichuan House", "rating": 3.4, "reviews": 207, "latitude": 34.01585, "longitude": -84.18926, "address": "5900 State Bridge Rd", "city": "Johns Creek", "state": "GA", "postcode": "30097" }, "geometry": { "type": "Point", "coordinates": [ -84.18926, 34.01585 ] } },
{ "type": "Feature", "properties": { "name": "Nahm Thai Cuisine", "rating": 4.2, "reviews": 606, "latitude": 34.089567450536897, "longitude": -84.271981721495806, "address": "5310 Windward Pkwy", "city": "Alpharetta", "state": "GA", "postcode": "30004" }, "geometry": { "type": "Point", "coordinates": [ -84.271981721495806, 34.089567450536897 ] } },
{ "type": "Feature", "properties": { "name": "Sunshine II Restaurant", "rating": 3.9, "reviews": 95, "latitude": 34.049864, "longitude": -84.225274, "address": "10995 State Bridge Rd", "city": "Alpharetta", "state": "GA", "postcode": "30022" }, "geometry": { "type": "Point", "coordinates": [ -84.225274, 34.049864 ] } },
{ "type": "Feature", "properties": { "name": "Panda Cafe", "rating": 3.3, "reviews": 86, "latitude": 34.03961, "longitude": -84.34515, "address": "580 E Crossville Rd", "city": "Roswell", "state": "GA", "postcode": "30075" }, "geometry": { "type": "Point", "coordinates": [ -84.34515, 34.03961 ] } },
{ "type": "Feature", "properties": { "name": "Paris Baguette", "rating": 3.6, "reviews": 248, "latitude": 33.962124098961098, "longitude": -84.131759852170902, "address": "3492 Satellite Blvd", "city": "Duluth", "state": "GA", "postcode": "30096" }, "geometry": { "type": "Point", "coordinates": [ -84.131759852170902, 33.962124098961098 ] } },
{ "type": "Feature", "properties": { "name": "I Luv Pho", "rating": 3.4, "reviews": 105, "latitude": 34.017987, "longitude": -84.564245, "address": "400 Ernest W Barrett Pkwy NW", "city": "Kennesaw", "state": "GA", "postcode": "30144" }, "geometry": { "type": "Point", "coordinates": [ -84.564245, 34.017987 ] } },
{ "type": "Feature", "properties": { "name": "China cafe", "rating": 3.6, "reviews": 120, "latitude": 33.985585, "longitude": -84.170553, "address": "3940 Peachtree Industrial Blvd", "city": "Duluth", "state": "GA", "postcode": "30096" }, "geometry": { "type": "Point", "coordinates": [ -84.170553, 33.985585 ] } },
{ "type": "Feature", "properties": { "name": "I Luv Pho", "rating": 2.9, "reviews": 479, "latitude": 33.942981306550934, "longitude": -84.159195141074221, "address": "4500 Satellite Blvd", "city": "Duluth", "state": "GA", "postcode": "30096" }, "geometry": { "type": "Point", "coordinates": [ -84.159195141074221, 33.942981306550934 ] } },
{ "type": "Feature", "properties": { "name": "I Luv Pho Mall Of Georgia", "rating": 3.0, "reviews": 83, "latitude": 34.062989410004619, "longitude": -83.993984346650336, "address": "1680 Mall Of Georgia Blvd", "city": "Buford", "state": "GA", "postcode": "30519" }, "geometry": { "type": "Point", "coordinates": [ -83.993984346650336, 34.062989410004619 ] } },
{ "type": "Feature", "properties": { "name": "Cafe Hot Wing", "rating": 3.0, "reviews": 30, "latitude": 33.5743599, "longitude": -84.3726273, "address": "6595 Tara Blvd", "city": "Jonesboro", "state": "GA", "postcode": "30236" }, "geometry": { "type": "Point", "coordinates": [ -84.3726273, 33.5743599 ] } },
{ "type": "Feature", "properties": { "name": "Cafe Au Lait", "rating": 4.2, "reviews": 130, "latitude": 34.004035538864997, "longitude": -84.293759779098494, "address": "2300 Holcomb Bridge Rd", "city": "Roswell", "state": "GA", "postcode": "30076" }, "geometry": { "type": "Point", "coordinates": [ -84.293759779098494, 34.004035538864997 ] } },
{ "type": "Feature", "properties": { "name": "Kung Fu Tea", "rating": 4.0, "reviews": 75, "latitude": 34.003921827786101, "longitude": -84.083184520234298, "address": "1291 Old Peachtree Rd NW", "city": "Suwanee", "state": "GA", "postcode": "30024" }, "geometry": { "type": "Point", "coordinates": [ -84.083184520234298, 34.003921827786101 ] } },
{ "type": "Feature", "properties": { "name": "Xin's Chinese Cuisine", "rating": 4.0, "reviews": 124, "latitude": 33.9771384, "longitude": -84.1616821, "address": "3940 Buford Hwy", "city": "Duluth", "state": "GA", "postcode": "30096" }, "geometry": { "type": "Point", "coordinates": [ -84.1616821, 33.9771384 ] } },
{ "type": "Feature", "properties": { "name": "Saigon Cafe", "rating": 3.5, "reviews": 127, "latitude": 33.998551, "longitude": -84.068736, "address": "1030 Old Peachtree Rd NW", "city": "Lawrenceville", "state": "GA", "postcode": "30043" }, "geometry": { "type": "Point", "coordinates": [ -84.068736, 33.998551 ] } },
{ "type": "Feature", "properties": { "name": "Wings n Philly Bistro", "rating": 3.7, "reviews": 80, "latitude": 33.967264, "longitude": -84.19543, "address": "4900 S Old Peachtree Rd", "city": "Norcross", "state": "GA", "postcode": "30071" }, "geometry": { "type": "Point", "coordinates": [ -84.19543, 33.967264 ] } },
{ "type": "Feature", "properties": { "name": "Boars Head Cafe", "rating": 2.9, "reviews": 118, "latitude": 33.641565982370501, "longitude": -84.439116317552205, "address": "6000 N Terminal Pkwy", "city": "Atlanta", "state": "GA", "postcode": "30320" }, "geometry": { "type": "Point", "coordinates": [ -84.439116317552205, 33.641565982370501 ] } },
{ "type": "Feature", "properties": { "name": "First Watch", "rating": 3.1, "reviews": 127, "latitude": 33.98002, "longitude": -84.21518, "address": "5230 Town Ctr Blvd", "city": "Peachtree Corners", "state": "GA", "postcode": "30092" }, "geometry": { "type": "Point", "coordinates": [ -84.21518, 33.98002 ] } },
{ "type": "Feature", "properties": { "name": "Le Mekong", "rating": 3.9, "reviews": 454, "latitude": 34.047234775855372, "longitude": -84.17907, "address": "10900 Medlock Bridge Rd", "city": "Johns Creek", "state": "GA", "postcode": "30097" }, "geometry": { "type": "Point", "coordinates": [ -84.17907, 34.047234775855372 ] } },
{ "type": "Feature", "properties": { "name": "la Madeleine", "rating": 3.6, "reviews": 335, "latitude": 33.95976, "longitude": -84.13879, "address": "2255 Pleasant Hill Rd", "city": "Duluth", "state": "GA", "postcode": "30096" }, "geometry": { "type": "Point", "coordinates": [ -84.13879, 33.95976 ] } },
{ "type": "Feature", "properties": { "name": "Yu-Ka Sushi Bar Roll & Pho", "rating": 3.6, "reviews": 324, "latitude": 34.002786616478183, "longitude": -84.082315374507957, "address": "1197 Old Peachtree Rd NW", "city": "Suwanee", "state": "GA", "postcode": "30024" }, "geometry": { "type": "Point", "coordinates": [ -84.082315374507957, 34.002786616478183 ] } },
{ "type": "Feature", "properties": { "name": "Pho 24", "rating": 3.5, "reviews": 162, "latitude": 34.0001036, "longitude": -84.1699732, "address": "3585 Peachtree Industrial Blvd", "city": "Duluth", "state": "GA", "postcode": "30096" }, "geometry": { "type": "Point", "coordinates": [ -84.1699732, 34.0001036 ] } },
{ "type": "Feature", "properties": { "name": "Buffalo's", "rating": 2.9, "reviews": 100, "latitude": 34.08864597, "longitude": -84.48596087, "address": "12035 Highway 92", "city": "Woodstock", "state": "GA", "postcode": "30188" }, "geometry": { "type": "Point", "coordinates": [ -84.48596087, 34.08864597 ] } },
{ "type": "Feature", "properties": { "name": "Pho Dai Loi 3", "rating": 4.0, "reviews": 305, "latitude": 33.942040397046497, "longitude": -84.120925412411495, "address": "1500 Pleasant Hill Rd", "city": "Duluth", "state": "GA", "postcode": "30096" }, "geometry": { "type": "Point", "coordinates": [ -84.120925412411495, 33.942040397046497 ] } },
{ "type": "Feature", "properties": { "name": "First Watch", "rating": 3.2, "reviews": 220, "latitude": 34.06751068, "longitude": -84.16983, "address": "11720 Medlock Bridge Rd", "city": "Johns Creek", "state": "GA", "postcode": "30097" }, "geometry": { "type": "Point", "coordinates": [ -84.16983, 34.06751068 ] } },
{ "type": "Feature", "properties": { "name": "Ming's BBQ", "rating": 3.2, "reviews": 391, "latitude": 33.956524, "longitude": -84.134995, "address": "2131 Pleasant Hill Rd", "city": "Duluth", "state": "GA", "postcode": "30096" }, "geometry": { "type": "Point", "coordinates": [ -84.134995, 33.956524 ] } },
{ "type": "Feature", "properties": { "name": "Sun and Moon Cafe", "rating": 3.6, "reviews": 61, "latitude": 33.95669, "longitude": -84.13096, "address": "3555 Gwinnett Place Dr", "city": "Duluth", "state": "GA", "postcode": "30096" }, "geometry": { "type": "Point", "coordinates": [ -84.13096, 33.95669 ] } },
{ "type": "Feature", "properties": { "name": "What the Pho", "rating": 3.6, "reviews": 293, "latitude": 33.96596, "longitude": -84.14124, "address": "2442 Pleasant Hill Rd", "city": "Duluth", "state": "GA", "postcode": "30096" }, "geometry": { "type": "Point", "coordinates": [ -84.14124, 33.96596 ] } }
]
}
